[
    {
        "name": "Nombuyiselo Francis Albert",
        "place": "Entshawini",
        "description": "Was beaten and stabbed to death on 10 December 1992 in Entshawini, KwaZulu, near Stanger, Natal, by named IFP supporters who thought she was an ANC supporter.",
        "coordinates": [
            31.2888955,
            -29.33968
        ],
        "date": "Date: 1992-12-10",
        "id": 35
    },
    {
        "name": "Tammas Edward Alexander",
        "place": "Durban",
        "description": "An ANC supporter who suffered extensive damage to his home and business premises in an explosion triggered by the opening of a booby-trapped computer on 2 October 1990 in Durban. One person was killed in the attack, allegedly carried out by named right-wing extremists.",
        "coordinates": [
            31.009909,
            -29.86183
        ],
        "date": "Date: 1990-10-02",
        "id": 36
    },
    {
        "name": "Matsosale William Aphane",
        "place": "Johannesburg",
        "description": "An ANC supporter who died when an IFP member assaulted him and threw him from a moving train in the Johannesburg area on 29 November 1991. One perpetrator was granted amnesty (AC/1999/0256). See train violence.",
        "coordinates": [
            28.049815,
            -26.205171
        ],
        "date": "Date: 1991-11-29",
        "id": 62
    },
    {
        "name": "Khobone Vernon Apolosi",
        "place": "Krugersdorp",
        "description": "An ANC supporter who was shot and injured by IFP-supporting hostel-dwellers in Swanieville, near Krugersdorp, Transvaal, on 12 May 1991. About one hundred and fifteen shacks were set alight, twenty seven people killed and twenty five vehicles burnt in retaliation for the expulsion of IFP supporters from the area. Twelve people were charged with crimes ranging from murder to arson, but were later acquitted due to lack of evidence.",
        "coordinates": [
            27.775556,
            -26.09556
        ],
        "date": "Date: 1991-05-12",
        "id": 66
    },
    {
        "name": "Roockea Asman",
        "place": "Sonkombo",
        "description": "An ANC supporter who had her house burnt down on 20 March 1994 in Sonkombo, Ndwedwe, KwaZulu, near Durban, in intense political conflict in the area. See Sonkombo arson attacks.",
        "coordinates": [
            31.009909,
            -29.86183
        ],
        "date": "Date: 1994-03-20",
        "id": 83
    },
    {
        "name": "Sipho August",
        "place": "Robertson",
        "description": "An ANC supporter who was beaten by police upon his arrest with more than seventy other youths in Robertson, Cape, on 20 November 1985. Mr August was again beaten by police on 18 June 1986 and thereafter detained for three months under emergency regulations. See police brutality.",
        "coordinates": [
            19.883611,
            -33.80222
        ],
        "date": "Date: 1985-11-20",
        "id": 89
    },
    {
        "name": "Sipho August",
        "place": "Robertson",
        "description": "An ANC supporter who was beaten by police upon his arrest with more than seventy other youths in Robertson, Cape, on 20 November 1985. Mr August was again beaten by police on 18 June 1986 and thereafter detained for three months under emergency regulations. See police brutality.",
        "coordinates": [
            19.883611,
            -33.80222
        ],
        "date": "Date: 1986-06-18",
        "id": 89
    },
    {
        "name": "Ben Kopi Baartman",
        "place": "Worcester",
        "description": "An ANC member from Worcester, Cape, who was banished to Zululand in 1959. He fled to Swaziland in 1961. He was deported to Tanzania in 1984 when the Swaziland government banned the ANC from operating on Swazi territory.",
        "coordinates": [
            19.448523,
            -33.64651
        ],
        "date": "Date: Unknown",
        "id": 100
    },
    {
        "name": "Masayidi Xhaghalegusha Bisiwe",
        "place": "Baziya",
        "description": "An ANC supporter who lost three rondavels when they were set alight and bulldozed by members of the Transkei Defence Force at Baziya, near Umtata, Transkei, on 14 December 1980.",
        "coordinates": [
            28.418368,
            -31.613168
        ],
        "date": "Date: 1980-12-14",
        "id": 109
    },
    {
        "name": "Nohlanhla Mina Bitamkhono",
        "place": "Murchison",
        "description": "An ANC supporter who was injured while escaping from an armed attack on a home in KwaSithole, Murchison, near Port Shepstone, Natal, on 5 April 1993 in continuing political conflict between ANC and IFP supporters in the area. Ten ANC supporters were killed and two injured in the attack.",
        "coordinates": [
            30.35735,
            -30.72471
        ],
        "date": "Date: 1993-04-05",
        "id": 110
    },
    {
        "name": "Qondeni Morencia Biyase",
        "place": "Hopewell",
        "description": "Had her home burnt down on 20 April 1992 in Hopewell, Ixopo, Natal, in ongoing political conflict between ANC and IFP supporters in the area.",
        "coordinates": [
            30.3831,
            -29.76762
        ],
        "date": "Date: 1992-04-20",
        "id": 114
    },
    {
        "name": "Wando Biyase",
        "place": "Imbali",
        "description": "An ANC supporter who was shot dead in Imbali, Pietermaritzburg, on 1 December 1992 by the same named IFP supporter who had killed his brother in 1989.",
        "coordinates": [
            30.3472222,
            -29.65889
        ],
        "date": "Date: 1992-12-01",
        "id": 116
    },
    {
        "name": "Alleta Sthembile Biyela",
        "place": "Empangeni",
        "description": "Was shot dead by IFP supporters on 14 October 1992 at Empangeni, Natal, during political conflict in the area. Ms Biyela\u2019s father, a prominent ANC member, was also killed in the attack.",
        "coordinates": [
            31.893293,
            -28.761974
        ],
        "date": "Date: 1992-10-14",
        "id": 118
    },
    {
        "name": "Bahlangene Biyela",
        "place": "KwaKhoza",
        "description": "Had his house destroyed in an arson attack at KwaKhoza, KwaZulu, near Eshowe, Natal, during 1993, in political conflict between IFP and ANC supporters in the area.",
        "coordinates": [
            31.464842,
            -28.89158
        ],
        "date": "Date: Unknown",
        "id": 119
    },
    {
        "name": "Bazibile Mildred Biyela",
        "place": "Zindophe",
        "description": "Had her livestock and possessions stolen during political conflict between ANC and IFP supporters in Zindophe, KwaZulu, near Eshowe, Natal, during March 1994. Her house was then destroyed.",
        "coordinates": [
            31.464842,
            -28.89158
        ],
        "date": "Date: 1994-03-01",
        "id": 120
    },
    {
        "name": "Bonisiwe Bongekile Biyela",
        "place": "Mkhukhuze",
        "description": "Had her home destroyed in an arson attack at Mkhukhuze, KwaZulu, near Eshowe, Natal, in September 1993, in political conflict between IFP and ANC supporters in the area.",
        "coordinates": [
            31.464842,
            -28.89158
        ],
        "date": "Date: 1993-09-01",
        "id": 121
    },
    {
        "name": "Charlie Biyela",
        "place": "Durban",
        "description": "An ANC supporter who was shot dead in Inanda, near KwaMashu, Durban, on 13 June 1993, in political conflict in the area.",
        "coordinates": [
            31.009909,
            -29.86183
        ],
        "date": "Date: 1993-06-13",
        "id": 122
    },
    {
        "name": "David Biyela",
        "place": "Biyela",
        "description": "An ANC supporter who was left disabled after being shot and stabbed by IFP supporters near Empangeni, Natal, on 10 May 1994, the day of Nelson Mandela\u2019s inauguration as President. The perpetrators stopped their car to attack Mr Biyela, apparently in a case of mistaken identity.",
        "coordinates": [
            31.55,
            -28.483333
        ],
        "date": "Date: 1994-05-10",
        "id": 123
    },
    {
        "name": "Elizabeth Biyela",
        "place": "Richards Bay",
        "description": "Had her house burnt down by IFP supporters at Bukhanana, KwaMbonambi, near Richards Bay, Natal, on January 1994 after being accused of defecting to the ANC.",
        "coordinates": [
            32.0577775,
            -28.77079
        ],
        "date": "Date: 1994-01-01",
        "id": 124
    },
    {
        "name": "Ivy Thandi Biyela",
        "place": "Sundumbili",
        "description": "An ANC supporter who lost her home in an arson attack at Sundumbili, KwaZulu, near Mandini, Natal, on 23 March 1994, in political conflict between ANC and IFP supporters during the run-up to the April 1994 elections.",
        "coordinates": [
            31.4103067,
            -29.15291
        ],
        "date": "Date: 1994-03-23",
        "id": 126
    },
    {
        "name": "Ivy Thandi Biyela",
        "place": "Sundumbili",
        "description": "An ANC supporter who lost her home in an arson attack at Sundumbili, KwaZulu, near Mandini, Natal, on 23 March 1994, in political conflict between ANC and IFP supporters during the run-up to the April 1994 elections.",
        "coordinates": [
            31.4103067,
            -29.15291
        ],
        "date": "Date: 1994-04-01",
        "id": 126
    },
    {
        "name": "John Qondeni Biyela",
        "place": "Johannesburg",
        "description": "Was shot and wounded when ANC security guards opened fire from the ANC headquarters at Shell House, Johannesburg, on a crowd of IFP marchers, on 28 March 1994. At least nine marchers were killed and around 100 injured. Ten ANC security guards were granted amnesty (AC/2000/142).",
        "coordinates": [
            28.049815,
            -26.205171
        ],
        "date": "Date: 1994-03-28",
        "id": 127
    },
    {
        "name": "Lindiwe Cynthia Biyela",
        "place": "Richmond",
        "description": "Had her home burnt down on 28 October 1992 in Ndaleni, Richmond, Natal, in ongoing political conflict between ANC and IFP supporters in the area.",
        "coordinates": [
            30.93333,
            -29.75
        ],
        "date": "Date: 1992-10-28",
        "id": 129
    },
    {
        "name": "Lucy Biyela",
        "place": "Sonkombo",
        "description": "An ANC supporter who had her home burnt down by IFP supporters on 16 March 1994 in Sonkombo, Ndwedwe, KwaZulu, near Durban, in intense political conflict in the area. See Sonkombo arson attacks.",
        "coordinates": [
            31.009909,
            -29.86183
        ],
        "date": "Date: 1994-03-16",
        "id": 130
    },
    {
        "name": "Mbongeni Bethuel Biyela",
        "place": "Empangeni",
        "description": "An ANC supporter who was shot and injured and lost his home in an arson attack by IFP supporters at Empangeni, Natal, on 14 October 1992. Mr Biyela\u2019s daughter was killed in the attack.",
        "coordinates": [
            31.893293,
            -28.761974
        ],
        "date": "Date: 1992-10-14",
        "id": 132
    },
    {
        "name": "Mildred Biyela",
        "place": "Eshowe",
        "description": "Had her house destroyed in an arson attack in Eshowe, Natal, during February 1994, in political conflict between ANC and IFP supporters in the area.",
        "coordinates": [
            31.464842,
            -28.89158
        ],
        "date": "Date: 1994-02-01",
        "id": 133
    },
    {
        "name": "Mohlo Biyela",
        "place": "Zindophe",
        "description": "An ANC supporter who had his house set alight by IFP supporters at Zindophe, KwaZulu, near Eshowe, Natal, in March 1994. Several homes belonging to ANC members were burnt down in the attack.",
        "coordinates": [
            31.464842,
            -28.89158
        ],
        "date": "Date: 1994-03-01",
        "id": 134
    },
    {
        "name": "Msebenziwomhle Caiphas Biyela",
        "place": "Empangeni",
        "description": "Had his home destroyed in an arson attack at Empangeni, Natal, on 17 January 1994, in political conflict between ANC and IFP supporters in the area.",
        "coordinates": [
            31.893293,
            -28.761974
        ],
        "date": "Date: 1994-01-17",
        "id": 136
    },
    {
        "name": "Mshayela Simon Biyela",
        "place": "Eshowe",
        "description": "Had his home destroyed in an arson attack at Eshowe, Natal, during March 1994, in political conflict between ANC and IFP supporters during the run-up to the first democratic election of April 1994.",
        "coordinates": [
            31.464842,
            -28.89158
        ],
        "date": "Date: 1994-03-01",
        "id": 137
    },
    {
        "name": "Mshayela Simon Biyela",
        "place": "Eshowe",
        "description": "Had his home destroyed in an arson attack at Eshowe, Natal, during March 1994, in political conflict between ANC and IFP supporters during the run-up to the first democratic election of April 1994.",
        "coordinates": [
            31.464842,
            -28.89158
        ],
        "date": "Date: 1994-04-01",
        "id": 137
    },
    {
        "name": "Musawenkosi Biyela",
        "place": "Gezinsila",
        "description": "Was severely beaten by unidentified persons at Gezinsila, KwaZulu, near Eshowe, Natal, on 3 December 1993, during political conflict between IFP and ANC supporters in the area. His brother was also beaten in the attack.",
        "coordinates": [
            31.464842,
            -28.89158
        ],
        "date": "Date: 1993-12-03",
        "id": 138
    },
    {
        "name": "Nompumelelo Zodwa Biyela",
        "place": "Zindophe",
        "description": "Lost her home in an arson attack at Zindophe, KwaZulu, near Eshowe, Natal, on 18 March 1994 in political conflict between ANC and IFP supporters during the run-up to the April 1994 elections.",
        "coordinates": [
            31.464842,
            -28.89158
        ],
        "date": "Date: 1994-03-18",
        "id": 140
    },
    {
        "name": "Nompumelelo Zodwa Biyela",
        "place": "Zindophe",
        "description": "Lost her home in an arson attack at Zindophe, KwaZulu, near Eshowe, Natal, on 18 March 1994 in political conflict between ANC and IFP supporters during the run-up to the April 1994 elections.",
        "coordinates": [
            31.464842,
            -28.89158
        ],
        "date": "Date: 1994-04-01",
        "id": 140
    },
    {
        "name": "Phuleni Biyela",
        "place": "Empangeni",
        "description": "She had her home destroyed in an arson attack by prominent IFP supporters at Empangeni, Natal, on 14 January 1993. Ms Biyela\u2019s nephew was an ANC supporter.",
        "coordinates": [
            31.893293,
            -28.761974
        ],
        "date": "Date: 1993-01-14",
        "id": 142
    },
    {
        "name": "Preety Biyela",
        "place": "Mhlathuze",
        "description": "Was shot and injured in an attack on her home at Mhlathuze, KwaZulu, near Eshowe, Natal, on 13 April 1994, during political conflict in the area between ANC and IFP supporters in the run up to the April 1994 elections.",
        "coordinates": [
            31.464842,
            -28.89158
        ],
        "date": "Date: 1994-04-13",
        "id": 143
    },
    {
        "name": "Preety Biyela",
        "place": "Mhlathuze",
        "description": "Was shot and injured in an attack on her home at Mhlathuze, KwaZulu, near Eshowe, Natal, on 13 April 1994, during political conflict in the area between ANC and IFP supporters in the run up to the April 1994 elections.",
        "coordinates": [
            31.464842,
            -28.89158
        ],
        "date": "Date: 1994-04-01",
        "id": 143
    },
    {
        "name": "Qondeni Biyela",
        "place": "Zindophe",
        "description": "Had her home destroyed in an arson attack at Zindophe, KwaZulu, near Eshowe, Natal, during 1994, in continuing political conflict between ANC and IFP supporters in the area.",
        "coordinates": [
            31.464842,
            -28.89158
        ],
        "date": "Date: Unknown",
        "id": 145
    },
    {
        "name": "Rejoice Thandekile Biyela",
        "place": "KwaMthethwa",
        "description": "An IFP supporter who had her house burnt down at KwaMthethwa, KwaZulu, near Empangeni, Natal, on 18 February 1994 in political conflict between ANC and IFP supporters in the area during the run-up to the April 1994 elections.",
        "coordinates": [
            31.893293,
            -28.761974
        ],
        "date": "Date: 1994-02-18",
        "id": 146
    },
    {
        "name": "Rejoice Thandekile Biyela",
        "place": "KwaMthethwa",
        "description": "An IFP supporter who had her house burnt down at KwaMthethwa, KwaZulu, near Empangeni, Natal, on 18 February 1994 in political conflict between ANC and IFP supporters in the area during the run-up to the April 1994 elections.",
        "coordinates": [
            31.893293,
            -28.761974
        ],
        "date": "Date: 1994-04-01",
        "id": 146
    },
    {
        "name": "Richard Zitha Biyela",
        "place": "Port Shepstone",
        "description": "An ANC supporter who was shot dead by a named perpetrator in Port Shepstone, Natal, on 3 November 1993, during continuing political conflict in the area.",
        "coordinates": [
            30.4297304,
            -30.752126
        ],
        "date": "Date: 1993-11-03",
        "id": 147
    },
    {
        "name": "Ruth Bongiwe Biyela",
        "place": "Mhlathuze",
        "description": "Had her home destroyed in an arson attack at Mhlathuze, KwaZulu, near Eshowe, Natal, on 13 April 1994, in political conflict between ANC and IFP supporters during the run-up to the first democratic election on 27 April.",
        "coordinates": [
            31.464842,
            -28.89158
        ],
        "date": "Date: 1994-04-13",
        "id": 148
    },
    {
        "name": "Sibongile Zibuyisize Biyela",
        "place": "Eshowe",
        "description": "Had her home destroyed in an arson attack at Eshowe, Natal, during 1993, in ongoing political conflict between IFP and ANC supporters in the area.",
        "coordinates": [
            31.464842,
            -28.89158
        ],
        "date": "Date: Unknown",
        "id": 151
    },
    {
        "name": "Sizeni Sbongile Biyela",
        "place": "Sonkombo",
        "description": "An ANC supporter who had her house burnt down by IFP supporters on 16 March 1994 at Sonkombo, Ndwedwe, KwaZulu, near Durban, in intense political conflict in the area. See Sonkombo arson attacks.",
        "coordinates": [
            31.009909,
            -29.86183
        ],
        "date": "Date: 1994-03-16",
        "id": 152
    },
    {
        "name": "Thandabezizwe Biyela",
        "place": "Eshowe",
        "description": "An ANC supporter who had his home destroyed in an arson attack by IFP supporters at Eshowe, Natal, in November 1993, in ongong political conflict in the area.",
        "coordinates": [
            31.464842,
            -28.89158
        ],
        "date": "Date: 1993-11-01",
        "id": 153
    },
    {
        "name": "Vusumuzi Mvana Biyela",
        "place": "Gezinsila",
        "description": "Was severely beaten by unidentified persons at Gezinsila, KwaZulu, near Eshowe, Natal, on 3 December 1993, during political conflict between IFP and ANC supporters in the area. His brother was also beaten in the attack.",
        "coordinates": [
            31.464842,
            -28.89158
        ],
        "date": "Date: 1993-12-03",
        "id": 155
    },
    {
        "name": "Bongi Jahephi Blose",
        "place": "Sonkombo",
        "description": "An ANC supporter who had her house burnt down by IFP supporters on 16 March 1994 at Sonkombo, Ndwedwe, KwaZulu, near Durban, in intense political conflict in the area. See Sonkombo arson attacks.",
        "coordinates": [
            31.009909,
            -29.86183
        ],
        "date": "Date: 1994-03-16",
        "id": 178
    },
    {
        "name": "Florence Lethiwe Blose",
        "place": "Durban",
        "description": "Had her house set alight by ANC supporters at Ntuzuma, near Durban, on 11 February 1990, in political conflict following the release of Nelson Mandela from prison.",
        "coordinates": [
            31.009909,
            -29.86183
        ],
        "date": "Date: 1990-02-11",
        "id": 181
    },
    {
        "name": "Funebona Anthony Blose",
        "place": "Sonkombo",
        "description": "Had his house destroyed in an arson attack during intense conflict between ANC and IFP supporters at Sonkombo, Ndwedwe, KwaZulu, near Durban, in 1994. See Sonkombo arson attacks.",
        "coordinates": [
            31.009909,
            -29.86183
        ],
        "date": "Date: Unknown",
        "id": 182
    },
    {
        "name": "Hawukeleni Blose",
        "place": "Sonkombo",
        "description": "An ANC supporter who had her house burnt down by IFP supporters on 16 March 1994 at Sonkombo, Ndwedwe, KwaZulu, near Durban, in intense political conflict in the area. See Sonkombo arson attacks.",
        "coordinates": [
            31.009909,
            -29.86183
        ],
        "date": "Date: 1994-03-16",
        "id": 184
    },
    {
        "name": "Khetheyakhe John Blose",
        "place": "Sonkombo",
        "description": "An ANC supporter who had his house burnt down by IFP supporters on 16 March 1994 at Sonkombo, Ndwedwe, KwaZulu, near Durban, in intense political conflict in the area. See Sonkombo arson attacks.",
        "coordinates": [
            31.009909,
            -29.86183
        ],
        "date": "Date: 1994-03-16",
        "id": 186
    },
    {
        "name": "Lindiwe Vimbephi Blose",
        "place": "Sonkombo",
        "description": "An ANC supporter who had her house burnt down by IFP supporters on 16 March 1994 at Sonkombo, Ndwedwe, KwaZulu, near Durban, in intense political conflict in the area. See Sonkombo arson attacks.",
        "coordinates": [
            31.009909,
            -29.86183
        ],
        "date": "Date: 1994-03-16",
        "id": 187
    },
    {
        "name": "Lungile Joyce Blose",
        "place": "Sonkombo",
        "description": "An ANC supporter who had her home burnt down at Sonkombo, Ndwedwe, KwaZulu, near Durban, by IFP supporters on 16 March 1994. See Sonkombo arson attacks.",
        "coordinates": [
            31.009909,
            -29.86183
        ],
        "date": "Date: 1994-03-16",
        "id": 188
    },
    {
        "name": "Mandlenkosi Michael Blose",
        "place": "Paddock",
        "description": "An ANC supporter who was shot dead by IFP supporters at Paddock, near Port Shepstone, Natal, on 26 October 1991.",
        "coordinates": [
            30.266667,
            -30.75
        ],
        "date": "Date: 1991-10-26",
        "id": 189
    },
    {
        "name": "Maureen Shiela Blose",
        "place": "Folweni",
        "description": "An ANC supporter who had her house burnt down by IFP supporters in Folweni, KwaZulu, near Umlazi, Durban, in 1992.",
        "coordinates": [
            31.009909,
            -29.86183
        ],
        "date": "Date: Unknown",
        "id": 191
    },
    {
        "name": "Ntombenhle Lindiwe Blose",
        "place": "Sonkombo",
        "description": "An ANC supporter who had her home burnt down by IFP supporters at Sonkombo, Ndwedwe, KwaZulu, near Durban, on 16 March 1994. See Sonkombo arson attacks.",
        "coordinates": [
            31.009909,
            -29.86183
        ],
        "date": "Date: 1994-03-16",
        "id": 199
    },
    {
        "name": "Ntombeyiningi Rene Blose",
        "place": "Sonkombo",
        "description": "An ANC supporter who had her house burnt down by IFP supporters on 16 March 1994 at Sonkombo, Ndwedwe, KwaZulu, near Durban, in intense political conflict in the area. See Sonkombo arson attacks.",
        "coordinates": [
            31.009909,
            -29.86183
        ],
        "date": "Date: 1994-03-16",
        "id": 200
    },
    {
        "name": "Matule Bapela",
        "place": "Nebo",
        "description": "Was doused with petrol and set alight by residents of Marishane village, in Nebo, Lebowa, on 20 August 1992. One ANC member, who claimed Ms Bapela was suspected of witchcraft, was refused amnesty for the incident (AC/2000/112).",
        "coordinates": [
            26.946544,
            -31.054528
        ],
        "date": "Date: 1992-08-20",
        "id": 207
    },
    {
        "name": "Petros Charlie Base",
        "place": "Richmond",
        "description": "An ANC supporter who was stabbed to death by named IFP supporters, in Ndaleni, Richmond, Natal, on 23 June 1991. Two others were killed in the attack. The perpetrators were found guilty in a court of law.",
        "coordinates": [
            30.93333,
            -29.75
        ],
        "date": "Date: 1991-06-23",
        "id": 224
    },
    {
        "name": "Shoni Base",
        "place": "Richmond",
        "description": "An ANC supporter who had his home near Richmond, Natal, burnt down by IFP supporters on 12 April 1994 in political conflict during the run-up to the April 1994 elections.",
        "coordinates": [
            30.93333,
            -29.75
        ],
        "date": "Date: 1994-04-12",
        "id": 225
    },
    {
        "name": "Shoni Base",
        "place": "Richmond",
        "description": "An ANC supporter who had his home near Richmond, Natal, burnt down by IFP supporters on 12 April 1994 in political conflict during the run-up to the April 1994 elections.",
        "coordinates": [
            30.93333,
            -29.75
        ],
        "date": "Date: 1994-04-01",
        "id": 225
    },
    {
        "name": "Vanish Base",
        "place": "Richmond",
        "description": "An ANC supporter who had her home at Gengeshe, Richmond, Natal, burnt down by IFP supporters on 4 April 1992.",
        "coordinates": [
            30.93333,
            -29.75
        ],
        "date": "Date: 1992-04-04",
        "id": 226
    },
    {
        "name": "Charlie Basi",
        "place": "Richmond",
        "description": "An ANC supporter who was killed when IFP supporters and Caprivi trainees carried out attacks on ANC supporters in Richmond, Natal, between 21 and 23 June 1991. One perpetrator was granted amnesty (AC/1999/217). See Richmond attacks.",
        "coordinates": [
            30.93333,
            -29.75
        ],
        "date": "Date: 1991-06-23",
        "id": 229
    },
    {
        "name": "Khanyisile Basi",
        "place": "Durban",
        "description": "An ANC supporter who was shot dead in Umlazi, Durban, on 7 September 1992, when a crowd of IFP supporters from Unit 17 attacked residents in the adjacent Uganda settlement.",
        "coordinates": [
            31.009909,
            -29.86183
        ],
        "date": "Date: 1992-09-07",
        "id": 230
    },
    {
        "name": "Mdedelwa Basi",
        "place": "Wembezi",
        "description": "An IFP supporter who was shot dead by other IFP supporters on 16 November 1990 at Wembezi, KwaZulu, near Estcourt, Natal, because he was thought to be an informer for the ANC.",
        "coordinates": [
            29.866194,
            -29.01269
        ],
        "date": "Date: 1990-11-16",
        "id": 231
    },
    {
        "name": "Mkhanyiselwa Basi",
        "place": "Richmond",
        "description": "An IFP supporter who disappeared from Gengeshe, Richmond, Natal, during ongoing conflict between ANC and IFP supporters in April 1992.",
        "coordinates": [
            30.93333,
            -29.75
        ],
        "date": "Date: 1992-04-01",
        "id": 233
    },
    {
        "name": "Phakamisa John Basi",
        "place": "Richmond",
        "description": "Was shot dead in ongoing conflict between IFP and ANC supporters at Ndaleni, Richmond, Natal, on 30 September 1991. His home was burnt down during the incident.",
        "coordinates": [
            30.93333,
            -29.75
        ],
        "date": "Date: 1991-09-30",
        "id": 234
    },
    {
        "name": "Xolani Joseph Basi",
        "place": "Richmond",
        "description": "An ANC supporter who died after being shot and stabbed by IFP supporters near Richmond, Natal, on 9 September 1992.",
        "coordinates": [
            30.93333,
            -29.75
        ],
        "date": "Date: 1992-09-09",
        "id": 235
    },
    {
        "name": "Shelly Erica Basson",
        "place": "Kutloanong",
        "description": "Was killed and her body mutilated by ANC supporters in Kutloanong, Odendaalsrus, Orange Free State, on 29 September 1990. Four ANC supporters were refused amnesty for the attack (AC/97/0007 and AC/97/0027). See Kutloanong mob attack. ",
        "coordinates": [
            26.75,
            -27.833333
        ],
        "date": "Date: 1990-09-29",
        "id": 239
    },
    {
        "name": "Olga Dagmar Basterman",
        "place": "Ixopo",
        "description": "An ANC supporter who had her house burnt down by IFP supporters in Ixopo, Natal, in June 1993.",
        "coordinates": [
            30.061111,
            -30.15139
        ],
        "date": "Date: 1993-06-01",
        "id": 240
    },
    {
        "name": "Buti Solati Batani",
        "place": "Tembisa",
        "description": "Was shot and injured in a drive-by shooting while waiting for a bus in Tembisa, Transvaal, in 1993. Three people died and several others were injured in the attack during violence between IFP and ANC supporters in the area.",
        "coordinates": [
            28.21768,
            -26.00681
        ],
        "date": "Date: Unknown",
        "id": 242
    },
    {
        "name": "Nomayazi Yaliwe Bayisa",
        "place": "Durban",
        "description": "An ANC supporter who had her home at Umlazi, Durban, set alight by IFP supporters in December 1991.",
        "coordinates": [
            31.009909,
            -29.86183
        ],
        "date": "Date: 1991-12-01",
        "id": 255
    },
    {
        "name": "Nomayazi Yaliwe Bayisa",
        "place": "Durban",
        "description": "An ANC supporter who had her home at Umlazi, Durban, set alight by IFP supporters in December 1991.",
        "coordinates": [
            31.009909,
            -29.86183
        ],
        "date": "Date: 1991-12-01",
        "id": 256
    },
    {
        "name": "Noluthando Stella Bazi",
        "place": "Cape Town",
        "description": "Was shot and injured by men wearing balaclavas in Khayelitsha, Cape Town, in November 1991, reportedly during conflict between ANC supporters and local councillors. Several others were also injured in the attack. See balaclava groups.",
        "coordinates": [
            18.417396,
            -33.92899
        ],
        "date": "Date: 1991-11-01",
        "id": 259
    },
    {
        "name": "Brian John Bazley",
        "place": "Port Shepstone",
        "description": "Was shot dead by a named IFP supporter on 24 April 1993 at KwaQanyaza, near Port Shepstone, Natal, because he was thought to be an ANC supporter and was working in an IFP area. His family home was destroyed in the attack.",
        "coordinates": [
            30.4297304,
            -30.752126
        ],
        "date": "Date: 1993-04-24",
        "id": 260
    },
    {
        "name": "Dora Nombulelo Bazley",
        "place": "Port Shepstone",
        "description": "She lost her home and property in an attack by named IFP supporters at KwaQanyaza, near Port Shepstone, Natal, on 24 April 1993. Ms Bazley\u2019s son, who was thought to be an ANC supporter, was shot dead in the attack.",
        "coordinates": [
            30.4297304,
            -30.752126
        ],
        "date": "Date: 1993-04-24",
        "id": 261
    },
    {
        "name": "Henry George Beeton",
        "place": "Cape Town",
        "description": "Was stoned and stabbed to death by a crowd of protesters on 11 August 1980 while driving near Crossroads, Cape Town. A second motorist was also attacked and killed that afternoon, during protests related to a bus boycott. Six people were convicted of the killings and sentenced to lengthy prison sentences. One of those convicted, an ANC supporter, was granted amnesty for the killing (AC/99/0298).",
        "coordinates": [
            18.417396,
            -33.92899
        ],
        "date": "Date: 1980-08-11",
        "id": 271
    },
    {
        "name": "Mfanafuthi Bekwa",
        "place": "Durban",
        "description": "An ANC supporter who was detained and tortured in Westville Prison, near Durban, in 1985. The Bekwa family suffered continuous police harassment after one member of the family went into exile in 1974.",
        "coordinates": [
            31.009909,
            -29.86183
        ],
        "date": "Date: Unknown",
        "id": 279
    },
    {
        "name": "Ntombizakhe Constance Bekwa",
        "place": "Durban",
        "description": "An ANC supporter who was subjected to continuous police harassment in KwaMashu, Durban, from 1974, after her brother went into exile.",
        "coordinates": [
            31.009909,
            -29.86183
        ],
        "date": "Date: Unknown",
        "id": 280
    },
    {
        "name": "Thulani Justice Bekwa",
        "place": "Durban",
        "description": "An ANC supporter who was repeatedly intimidated and harassed at KwaMashu, Durban, in 1990 by other ANC supporters who suspected him of \u2018spying\u2019 for the police.",
        "coordinates": [
            31.009909,
            -29.86183
        ],
        "date": "Date: Unknown",
        "id": 281
    },
    {
        "name": "Headman Phakamile Bele",
        "place": "Mount Fletcher",
        "description": "An ANC supporter who was tortured in police cells in Mount Fletcher, Transkei, in March 1960, while being interrogated about Nonqulwana meetings during the Pondoland revolt.",
        "coordinates": [
            28.503774,
            -30.69184
        ],
        "date": "Date: 1960-03-01",
        "id": 285
    },
    {
        "name": "Nothimba Bele",
        "place": "Bizana",
        "description": "An ANC supporter who was detained at Bizana, Transkei, in June 1960, during the Pondoland revolt.",
        "coordinates": [
            29.3737774,
            -31.59053
        ],
        "date": "Date: 1960-06-01",
        "id": 286
    },
    {
        "name": "Michael Frederick Belelie",
        "place": "Kutloanong",
        "description": "Was stabbed and burnt to death by ANC supporters in Kutloanong, Odendaalsrus, Orange Free State (OFS) on 29 September 1990. Four ANC supporters were refused amnesty for the attack (AC/97/0007 and AC/97/0027). See Kutloanong mob attack.",
        "coordinates": [
            26.75,
            -27.833333
        ],
        "date": "Date: 1990-09-29",
        "id": 289
    },
    {
        "name": "Solomon Pitso Belo",
        "place": "Viljoenskroon",
        "description": "An ANC supporter who was shot dead when police opened fire on a student protest march in Viljoenskroon, Orange Free State, on 19 April 1990. Four other ANC supporters were killed and seven injured in the shooting.",
        "coordinates": [
            26.948056,
            -27.20833
        ],
        "date": "Date: 1990-04-19",
        "id": 293
    },
    {
        "name": "Nkele Maria Baas",
        "place": "Kempton Park",
        "description": "Was shot dead by IFP supporters during an attack on her home in Tembisa, Kempton Park, Transvaal, on 3 March 1991. The Baas home was attacked because the area \u2019s Xhosa-speaking residents were assumed to be ANC supporters.",
        "coordinates": [
            28.233013,
            -26.098762
        ],
        "date": "Date: 1991-03-03",
        "id": 308
    },
    {
        "name": "Princess Ntombizodwa Baas",
        "place": "Kempton Park",
        "description": "Was shot and injured by IFP supporters during an attack on her home in Tembisa, Kempton Park, Transvaal, on 3 March 1991. Ms Baas\u2019s children were also shot during the incident. The Baas home was attacked because the area \u2019s Xhosa speaking residents were assumed to be ANC supporters.",
        "coordinates": [
            28.233013,
            -26.098762
        ],
        "date": "Date: 1991-03-03",
        "id": 309
    },
    {
        "name": "Nomandi Christina Boyce",
        "place": "Bhambayi",
        "description": "Had her home burnt down by IFP supporters on 16 February 1993 in a dawn attack on the ANC stronghold of Bhambayi, near KwaMashu, Durban, in ongoing conflict over access to resources. Ten people were killed and thirty five houses were burnt down in this attack. ",
        "coordinates": [
            30.9781739,
            -29.70328
        ],
        "date": "Date: 1993-02-16",
        "id": 337
    },
    {
        "name": "Connie Braam",
        "place": "Harare",
        "description": "An ANC member who was poisoned in Harare, Zimbabwe, in September 1987. She believes members of the Special Branch, CCB and Military Intelligence were responsible for this incident, and other attempts on her life, which included a bomb that did not explode. As a result of the poisoning, she suffered post-traumatic stress.",
        "coordinates": [
            18.6734917,
            -34.05769
        ],
        "date": "Date: 1987-09-01",
        "id": 340
    },
    {
        "name": "Adelina Britz",
        "place": "Sebokeng",
        "description": "Was burnt to death by IFP supporters at Sebokeng, Transvaal, on 18 June 1992 during clashes between IFP and ANC supporters. Her sibling was also burnt to death in this incident.",
        "coordinates": [
            27.844094,
            -26.55898
        ],
        "date": "Date: 1992-06-18",
        "id": 354
    },
    {
        "name": "Lazarus Britz",
        "place": "Sebokeng",
        "description": "Was burnt to death by IFP supporters at Sebokeng, Transvaal, on 18 June 1992 during clashes between IFP and ANC supporters. His sibling was also burnt to death in the incident.",
        "coordinates": [
            27.844094,
            -26.55898
        ],
        "date": "Date: 1992-06-18",
        "id": 356
    },
    {
        "name": "Richard Bronkhorst",
        "place": "Sokhulu",
        "description": "An ANC supporter who was shot dead by a named IFP supporter at Sokhulu, KwaZulu, near Empangeni, Natal, on 24 November 1991. The incident took place as ANC supporters were returning from a rally in the area.",
        "coordinates": [
            31.893293,
            -28.761974
        ],
        "date": "Date: 1991-11-24",
        "id": 362
    },
    {
        "name": "Nomusa N Bukhosini",
        "place": "Durban",
        "description": "An ANC supporter who had her house at Inanda, near KwaMashu, Durban, destroyed in an arson attack by IFP supporters on 18 April 1991.",
        "coordinates": [
            31.009909,
            -29.86183
        ],
        "date": "Date: 1991-04-18",
        "id": 377
    },
    {
        "name": "Zamazulu Eunice Bukosini",
        "place": "Sonkombo",
        "description": "An ANC supporter who had her home burnt down by IFP supporters at Sonkombo, Ndwedwe, KwaZulu, near Durban, on 16 March 1994. See Sonkombo arson attacks.",
        "coordinates": [
            31.009909,
            -29.86183
        ],
        "date": "Date: 1994-03-16",
        "id": 379
    },
    {
        "name": "Mkhululi Bukubukwana",
        "place": "Mdantsane",
        "description": "An ANC supporter who was tortured after his arrest on 15 June 1984 in Mdantsane, Ciskei. He had allegedly refused to be a police informer.",
        "coordinates": [
            27.6708791,
            -32.958623
        ],
        "date": "Date: 1984-06-15",
        "id": 380
    },
    {
        "name": "Bhabhe Zebulon Bulose",
        "place": "Sonkombo",
        "description": "An ANC supporter who had her home burnt down by IFP supporters at Sonkombo, Ndwedwe, KwaZulu, near Durban, on 16 March 1994. See Sonkombo arson attacks.",
        "coordinates": [
            31.009909,
            -29.86183
        ],
        "date": "Date: 1994-03-16",
        "id": 384
    },
    {
        "name": "Buyelaphi Bulose",
        "place": "Sonkombo",
        "description": "An ANC supporter who had her house burnt down by IFP supporters on 16 March 1994 at Sonkombo, Ndwedwe, KwaZulu, near Durban, in intense political conflict in the area. See Sonkombo arson attacks.",
        "coordinates": [
            31.009909,
            -29.86183
        ],
        "date": "Date: 1994-03-16",
        "id": 386
    },
    {
        "name": "Fakazile Phakamile Bulose",
        "place": "Sonkombo",
        "description": "An ANC supporter who had her home burnt down by IFP supporters at Sonkombo, Ndwedwe, KwaZulu, near Durban, on 20 March 1994. See Sonkombo arson attacks.",
        "coordinates": [
            31.009909,
            -29.86183
        ],
        "date": "Date: 1994-03-20",
        "id": 387
    },
    {
        "name": "Lindeni Bulose",
        "place": "Sonkombo",
        "description": "An ANC supporter who had her home burnt down by IFP supporters at Sonkombo, Ndwedwe, KwaZulu, near Durban, on 16 March 1994. See Sonkombo arson attacks.",
        "coordinates": [
            31.009909,
            -29.86183
        ],
        "date": "Date: 1994-03-16",
        "id": 389
    },
    {
        "name": "Makazi Murriel Bulose",
        "place": "Durban",
        "description": "Bulose lost her home in an arson attack at Ntuzuma, near Durban, on 20 March 1994 in political conflict between ANC and IFP supporters during the run-up to the April 1994 elections.",
        "coordinates": [
            31.009909,
            -29.86183
        ],
        "date": "Date: 1994-03-20",
        "id": 390
    },
    {
        "name": "Makazi Murriel Bulose",
        "place": "Durban",
        "description": "Bulose lost her home in an arson attack at Ntuzuma, near Durban, on 20 March 1994 in political conflict between ANC and IFP supporters during the run-up to the April 1994 elections.",
        "coordinates": [
            31.009909,
            -29.86183
        ],
        "date": "Date: 1994-04-01",
        "id": 390
    },
    {
        "name": "Ndu Basisiwe Bulose",
        "place": "Durban",
        "description": "An ANC supporter who had her house burnt down by IFP supporters at Inanda, near KwaMashu, Durban, on 27 July 1991, in ongoing political conflict in the area.",
        "coordinates": [
            31.009909,
            -29.86183
        ],
        "date": "Date: 1991-07-27",
        "id": 393
    },
    {
        "name": "Sipho Bulose",
        "place": "Durban",
        "description": "Was shot dead by IFP supporters at his home in Inanda, near KwaMashu, Durban, on 8 August 1993. Mr Bulose and his family had fled their home earlier that year because of the political conflict between ANC and IFP supporters in the area. He was killed when he returned to retrieve some of the family\u2019s possessions.",
        "coordinates": [
            31.009909,
            -29.86183
        ],
        "date": "Date: 1993-08-08",
        "id": 395
    },
    {
        "name": "Mondi Bungana",
        "place": "Bizana",
        "description": "An ANC supporter who was arrested and severely beaten by the police in Bizana, Transkei, in March 1960. The beatings resulted in internal injuries that led to his death four months later. See Pondoland revolt.",
        "coordinates": [
            29.3737774,
            -31.59053
        ],
        "date": "Date: 1960-03-01",
        "id": 398
    },
    {
        "name": "Ntombiphi Blose",
        "place": "Sonkombo",
        "description": "An ANC supporter who had her house burnt down by IFP supporters on 16 March 1994 at Sonkombo, Ndwedwe, KwaZulu, near Durban, in intense political conflict in the area. See Sonkombo arson attacks.",
        "coordinates": [
            31.009909,
            -29.86183
        ],
        "date": "Date: 1994-03-16",
        "id": 409
    },
    {
        "name": "Philisiwe Alice Blose",
        "place": "Sonkombo",
        "description": "An ANC supporter who had her house burnt down by IFP supporters on 16 March 1994 at Sonkombo, Ndwedwe, KwaZulu, near Durban, in intense political conflict in the area. See Sonkombo arson attacks.",
        "coordinates": [
            31.009909,
            -29.86183
        ],
        "date": "Date: 1994-03-16",
        "id": 411
    },
    {
        "name": "Sibongile Mintha Buthelezi",
        "place": "KwaMthethwa",
        "description": "An IFP supporter who had her house burnt down by a named IFP member at KwaMthethwa, KwaZulu, near Empangeni, Natal, in March 1993. The attack was allegedly motivated by the fact that Ms Buthelezi\u2019s sons were ANC supporters.",
        "coordinates": [
            31.893293,
            -28.761974
        ],
        "date": "Date: 1993-03-01",
        "id": 413
    },
    {
        "name": "Sigcawu Siphiwe Buthelezi",
        "place": "Ndwedwe",
        "description": "Was shot dead by ANC supporters on 12 February 1994 in Ndwedwe, KwaZulu, near Durban, while attending the funeral of a local IFP councillor. About twenty killings of both IFP and ANC supporters were recorded that month. Hundreds of people were forced to flee the area, and schools and shops were forced to close.",
        "coordinates": [
            31.009909,
            -29.86183
        ],
        "date": "Date: 1994-02-12",
        "id": 416
    },
    {
        "name": "Ritta Blose",
        "place": "Durban",
        "description": "Blose was stabbed by a named IFP supporter on 27 July 1991 in Ohlange, Inanda, near KwaMashu, Durban, in ongoing political conflict between IFP and ANC supporters in the area.",
        "coordinates": [
            31.009909,
            -29.86183
        ],
        "date": "Date: 1991-07-27",
        "id": 417
    },
    {
        "name": "Sibongile Isabel Blose",
        "place": "Sonkombo",
        "description": "An ANC supporter who was shot in the leg and had her home burnt down by IFP supporters on 20 March 1994 at Sonkombo, Ndwedwe, KwaZulu, near Durban, in intense political conflict in the area. See Sonkombo arson attacks.",
        "coordinates": [
            31.009909,
            -29.86183
        ],
        "date": "Date: 1994-03-20",
        "id": 419
    },
    {
        "name": "Siyabonga Justice Blose",
        "place": "Esikhawini",
        "description": "Was shot and injured on 16 February 1992 when IFP supporters returning from a chief\u2019s gathering attacked ANC hostels and homes at Esikhawini, KwaZulu, near Empangeni, Natal. See Esikhawini Attacks. ",
        "coordinates": [
            31.893293,
            -28.761974
        ],
        "date": "Date: 1992-02-16",
        "id": 421
    },
    {
        "name": "Thomas Mfanafuthi Blose",
        "place": "Izingolweni",
        "description": "An ANC supporter who was shot and killed by an IFP member during violent political conflict at Izingolweni, Port Shepstone, Natal, on 19 May 1991. One perpetrator was granted amnesty (AC/1999/0339).",
        "coordinates": [
            30.132317,
            -30.78459
        ],
        "date": "Date: 1991-05-19",
        "id": 423
    },
    {
        "name": "Yeye Blose",
        "place": "Sonkombo",
        "description": "An ANC supporter who had her house burnt down by IFP supporters on 16 March 1994 at Sonkombo, Ndwedwe, KwaZulu, near Durban, in intense political conflict in the area. See Sonkombo arson attacks.",
        "coordinates": [
            31.009909,
            -29.86183
        ],
        "date": "Date: 1994-03-16",
        "id": 424
    },
    {
        "name": "Kedineetse Memory Boikanyo",
        "place": "Ditlhake",
        "description": "An ANC supporter who was shot and injured when police opened fire on protesters returning from an ANC-organised march in Ditlhake, Koffiefontein, Orange Free State, in April 1990.",
        "coordinates": [
            24.9966667,
            -29.39222
        ],
        "date": "Date: 1990-04-01",
        "id": 437
    },
    {
        "name": "Thokozile Boikhutso",
        "place": "Boikhutso",
        "description": "Was detained for a month in 1990 in Mabopane, Bophuthatswana, for allegedly forming an ANC branch in the area. This detention followed several other detentions and beatings, as well as police harassment over a period of twenty years. Ms Boikhutso was targeted because her husband Festus Boikhutso was an ANC member killed in combat in Zimbabwe in 1968.",
        "coordinates": [
            26.134401,
            -26.180285
        ],
        "date": "Date: Unknown",
        "id": 438
    },
    {
        "name": "Bangiso Petros Boilane",
        "place": "Angola",
        "description": "An ANC member from Botshabelo near Bloemfontein who was held in custody by the ANC, first in Tanzania in June 1985, and later in Zambia and Angola. In Angola he was first held at the Viana transit camp and then at Quibaxe. While in custody he was subjected to torture over a prolonged period.",
        "coordinates": [
            26.7549836,
            -32.061257
        ],
        "date": "Date: 1985-06-01",
        "id": 439
    },
    {
        "name": "Buti Herbert Bokhale",
        "place": "Daveyton",
        "description": "Was shot in the hand while attending a stokvel (informal savings syndicate) on 25 July 1993 in Daveyton, Transvaal. On the same day, several people were killed or injured during conflict between IFP and ANC supporters in the township.",
        "coordinates": [
            28.424922,
            -26.138159
        ],
        "date": "Date: 1993-07-25",
        "id": 445
    },
    {
        "name": "David Kanene Bomu",
        "place": "East London",
        "description": "An ANC supporter who was detained in Fort Glamorgan prison, East London, and held in solitary confinement from 16 June 1986 to February 1987.",
        "coordinates": [
            27.8998573,
            -33.01916
        ],
        "date": "Date: 1986-06-16",
        "id": 454
    },
    {
        "name": "David Kanene Bomu",
        "place": "East London",
        "description": "An ANC supporter who was detained in Fort Glamorgan prison, East London, and held in solitary confinement from 16 June 1986 to February 1987.",
        "coordinates": [
            27.8998573,
            -33.01916
        ],
        "date": "Date: 1987-02-01",
        "id": 454
    },
    {
        "name": "(First Name Not Given) Bongani",
        "place": "Soweto",
        "description": "A suspected criminal who was shot dead in 1992 in Mzimhlope, Soweto, Transvaal, by members of a people's court made up of ANC-supporting street residents. One self-defence unit (SDU) member who had participated in the people's court was refused amnesty for the incident (AC/1999/0317). See self-defence units (SDU).",
        "coordinates": [
            27.858492,
            -26.267812
        ],
        "date": "Date: Unknown",
        "id": 458
    },
    {
        "name": "Mpumelelo Washington Bongco",
        "place": "Central",
        "description": "An ANC member who was executed on 10 December 1964 at Pretoria Central Prison, after being found guilty on charges of treason.",
        "coordinates": [
            25.6143537,
            -33.96297
        ],
        "date": "Date: 1964-12-10",
        "id": 459
    },
    {
        "name": "Morongwaotsile Pieter Bonyane",
        "place": "Taung",
        "description": "An ANC supporter who was severely beaten by members of the Bophuthatswana Defence Force while attending an ANC meeting on 8 January 1994 in Taung, Bophuthatswana.",
        "coordinates": [
            24.7452778,
            -27.56806
        ],
        "date": "Date: 1994-01-08",
        "id": 466
    },
    {
        "name": "Maggie Mirriam Chinto Bopalamo",
        "place": "Mogwase",
        "description": "An ANC supporter who was detained and tortured in Mogwase, Bophuthatswana, in June 1988. Ms Bopalamo was reportedly held in solitary confinement for three months and kept under house arrest upon her release.",
        "coordinates": [
            27.215833,
            -25.27611
        ],
        "date": "Date: 1988-06-01",
        "id": 489
    },
    {
        "name": "Bonubakhe Sipho Busane",
        "place": "Ndwedwe",
        "description": "An ANC supporter who was shot dead by unidentified perpetrators in Ndwedwe, KwaZulu, near Durban, on 13 December 1993 in continuing political conflict between ANC and IFP supporters in the area.",
        "coordinates": [
            31.009909,
            -29.86183
        ],
        "date": "Date: 1993-12-13",
        "id": 516
    },
    {
        "name": "Sipho Dennis Buthelezi",
        "place": "Durban",
        "description": "An ANC supporter who had his home burnt down in Inanda, near KwaMashu, Durban, in December 1990 during intensifying conflict between ANC and IFP supporters in the area.",
        "coordinates": [
            31.009909,
            -29.86183
        ],
        "date": "Date: 1990-12-01",
        "id": 520
    },
    {
        "name": "Diphoza Zakithi Busane",
        "place": "Sonkombo",
        "description": "An ANC supporter who had his home burnt down by IFP supporters at Sonkombo, Ndwedwe, KwaZulu, near Durban, on 16 March 1994. See Sonkombo arson attacks.",
        "coordinates": [
            31.009909,
            -29.86183
        ],
        "date": "Date: 1994-03-16",
        "id": 521
    },
    {
        "name": "Mbonambi Baba",
        "place": "Durban",
        "description": "Was shot dead during a shoot-out between the ANC and the IFP at a political rally at King Zwelethini Stadium in Umlazi, Durban, in February 1992.",
        "coordinates": [
            31.009909,
            -29.86183
        ],
        "date": "Date: 1992-02-01",
        "id": 522
    },
    {
        "name": "Thembekile Joyce Buthelezi",
        "place": "Ezakheni",
        "description": "An ANC supporter who was beaten and had her house burnt down by named IFP supporters on 17 November 1992 at Ezakheni, KwaZulu, near Ladysmith, Natal.",
        "coordinates": [
            29.8876994,
            -28.63236
        ],
        "date": "Date: 1992-11-17",
        "id": 528
    },
    {
        "name": "Thokozani Buthelezi",
        "place": "Katlehong",
        "description": "An ANC member who was abducted and shot and hacked to death by ANC self-defence unit (SDU) members on 7 December 1993 in Katlehong, Transvaal. Thokozani was one of eleven ANC members killed, nine execution style, by SDU members in Moleleki Section, Katlehong, during conflict between the local ANC Youth League and SDU members. His father was also shot dead in the incident. Thirteen SDU members were refused amnesty (AC/1998/0013).",
        "coordinates": [
            28.151111,
            -26.33861
        ],
        "date": "Date: 1993-12-07",
        "id": 529
    },
    {
        "name": "Thulani Vincents Buthelezi",
        "place": "Estcourt",
        "description": "An IFP supporter who was shot dead when named ANC supporters ambushed his car in Estcourt, Natal, on 16 December 1992. Two of the five IFP supporters with whom he was travelling were killed, while three were injured.",
        "coordinates": [
            29.866194,
            -29.01269
        ],
        "date": "Date: 1992-12-16",
        "id": 531
    },
    {
        "name": "Victor Buthelezi",
        "place": "Germiston",
        "description": "An IFP supporter who was abducted from work in Germiston, Transvaal, in August 1993. He has not been seen since. Relatives believe he was abducted by ANC supporters because of his IFP affiliation.",
        "coordinates": [
            28.176654,
            -26.234806
        ],
        "date": "Date: 1993-08-01",
        "id": 533
    },
    {
        "name": "Vumephi Joyce Buthelezi",
        "place": "Bhejane",
        "description": "An ANC supporter who had her house burnt down by IFP supporters in Bhejane, KwaZulu, near Empangeni, Natal, on 25 September 1992.",
        "coordinates": [
            31.893293,
            -28.761974
        ],
        "date": "Date: 1992-09-25",
        "id": 534
    },
    {
        "name": "Yonke James Buthelezi",
        "place": "Empangeni",
        "description": "An IFP supporter who was shot and injured by ANC supporters on 14 February 1994 near Empangeni, Natal, because he was hiding weapons for the IFP. Nine people were killed in political conflict in this area in February 1994 in the run-up to the April 1994 elections.",
        "coordinates": [
            31.893293,
            -28.761974
        ],
        "date": "Date: 1994-02-14",
        "id": 536
    },
    {
        "name": "Yonke James Buthelezi",
        "place": "Empangeni",
        "description": "An IFP supporter who was shot and injured by ANC supporters on 14 February 1994 near Empangeni, Natal, because he was hiding weapons for the IFP. Nine people were killed in political conflict in this area in February 1994 in the run-up to the April 1994 elections.",
        "coordinates": [
            31.893293,
            -28.761974
        ],
        "date": "Date: 1994-02-01",
        "id": 536
    },
    {
        "name": "Yonke James Buthelezi",
        "place": "Empangeni",
        "description": "An IFP supporter who was shot and injured by ANC supporters on 14 February 1994 near Empangeni, Natal, because he was hiding weapons for the IFP. Nine people were killed in political conflict in this area in February 1994 in the run-up to the April 1994 elections.",
        "coordinates": [
            31.893293,
            -28.761974
        ],
        "date": "Date: 1994-04-01",
        "id": 536
    },
    {
        "name": "Khethiwe Buys",
        "place": "Isithebe",
        "description": "Her home and possessions were burnt down at Isithebe, KwaZulu, near Mandini, Natal, on 13 April 1994 in intense conflict between ANC and IFP supporters in the run-up to the April 1994 elections.",
        "coordinates": [
            31.419987,
            -29.101135
        ],
        "date": "Date: 1994-04-13",
        "id": 545
    },
    {
        "name": "Khethiwe Buys",
        "place": "Isithebe",
        "description": "Her home and possessions were burnt down at Isithebe, KwaZulu, near Mandini, Natal, on 13 April 1994 in intense conflict between ANC and IFP supporters in the run-up to the April 1994 elections.",
        "coordinates": [
            31.419987,
            -29.101135
        ],
        "date": "Date: 1994-04-01",
        "id": 545
    },
    {
        "name": "Tiyo Dorah Caluza",
        "place": "Murchison",
        "description": "Caluza lost her home and possessions to looting IFP supporters in February 1993 at Murchison, near Port Shepstone, Natal, in ongoing conflict between ANC and IFP supporters in the area. ",
        "coordinates": [
            30.35735,
            -30.72471
        ],
        "date": "Date: 1993-02-01",
        "id": 559
    },
    {
        "name": "Anthony Mark Casey",
        "place": "Kutloanong",
        "description": "Was stabbed and burnt to death by ANC supporters in Kutloanong, Odendaalsrus, Orange Free State, on 29 September 1990. Four ANC supporters were refused amnesty for the attack (AC/97/0007 and AC/97/0027). See Kutloanong mob attack.",
        "coordinates": [
            26.75,
            -27.833333
        ],
        "date": "Date: 1990-09-29",
        "id": 566
    },
    {
        "name": "Bongani Cebekhulu",
        "place": "Durban",
        "description": "An ANC supporter who was forcefully abducted by the police during 1991 and taken to an IFP stronghold in Umlazi, Durban, where he was shot dead.",
        "coordinates": [
            31.009909,
            -29.86183
        ],
        "date": "Date: Unknown",
        "id": 572
    },
    {
        "name": "Linda Cebekhulu",
        "place": "Durban",
        "description": "An ANC supporter whose house in Umlazi, Durban, was burnt down by IFP supporters in November 1993.",
        "coordinates": [
            31.009909,
            -29.86183
        ],
        "date": "Date: 1993-11-01",
        "id": 576
    },
    {
        "name": "Mandlakayise Alson Cebekhulu",
        "place": "Empangeni",
        "description": "An ANC supporter and shopsteward who had his house at Empangeni, Natal, burnt down by IFP supporters in September 1993. Mr Cebekhulu\u2019s son was killed by IFP supporters a week later. ",
        "coordinates": [
            31.893293,
            -28.761974
        ],
        "date": "Date: 1993-09-01",
        "id": 577
    },
    {
        "name": "Mdumiseni Cebekhulu",
        "place": "Esikhawini",
        "description": "Was shot dead on 7 May 1993 in Esikhawini, KwaZulu, near Empangeni, Natal, during ongoing conflict between IFP and ANC supporters in the area.",
        "coordinates": [
            31.893293,
            -28.761974
        ],
        "date": "Date: 1993-05-07",
        "id": 579
    },
    {
        "name": "Mphile Victoria Cebekhulu",
        "place": "Empangeni",
        "description": "An IFP supporter who had her home near Empangeni, Natal, burnt down by ANC supporters in September 1993. Her brother was abducted and killed by ANC supporters. His body was later found in a forest.",
        "coordinates": [
            31.893293,
            -28.761974
        ],
        "date": "Date: 1993-09-01",
        "id": 580
    },
    {
        "name": "Sifiso Halalisani Cebekhulu",
        "place": "Empangeni",
        "description": "An IFP supporter who was abducted and burnt to death by named ANC supporters on 9 October 1993 in Empangeni, Natal. His body was found in a forest at Enseleni three days later. ANC supporters had also carried out an arson attack on his home the previous month.",
        "coordinates": [
            31.893293,
            -28.761974
        ],
        "date": "Date: 1993-10-09",
        "id": 584
    },
    {
        "name": "Simangele Esther Cebekhulu",
        "place": "Ezakheni",
        "description": "An ANC supporter who was displaced when her house was burnt down in an attack at Ezakheni, KwaZulu, near Ladysmith, Natal, by members of the IFP and ISU on 9 March 1994. Her husband and mother were killed, and her sister injured, in the attack.",
        "coordinates": [
            29.8876994,
            -28.63236
        ],
        "date": "Date: 1994-03-09",
        "id": 585
    },
    {
        "name": "Sithembi Mavis Cebekhulu",
        "place": "Amanzimtoti",
        "description": "An IFP supporter who was repeatedly harassed by ANC supporters in Kwa-Makhutha, Amanzimtoti, near Durban, between 1990 and 1994. She was eventually forced to leave her home.",
        "coordinates": [
            30.885266,
            -30.052188
        ],
        "date": "Date: Unknown",
        "id": 586
    },
    {
        "name": "Thokozile Cebekhulu",
        "place": "Nyanini",
        "description": "Cebekhulu lost her house in an arson attack at Nyanini, KwaZulu, near Eshowe, Natal, in 1993, in ongoing conflict between ANC and IFP supporters in the area.",
        "coordinates": [
            31.464842,
            -28.89158
        ],
        "date": "Date: Unknown",
        "id": 588
    },
    {
        "name": "Zodwa Elsie Cebekhulu",
        "place": "Ezakheni",
        "description": "An ANC supporter who was severely stabbed by IFP supporters at Ezakheni, KwaZulu, near Ladysmith, Natal, on 9 March 1994, in political conflict during the run-up to the first democratic election in April 1994.",
        "coordinates": [
            29.8876994,
            -28.63236
        ],
        "date": "Date: 1994-03-09",
        "id": 592
    },
    {
        "name": "Zodwa Elsie Cebekhulu",
        "place": "Ezakheni",
        "description": "An ANC supporter who was severely stabbed by IFP supporters at Ezakheni, KwaZulu, near Ladysmith, Natal, on 9 March 1994, in political conflict during the run-up to the first democratic election in April 1994.",
        "coordinates": [
            29.8876994,
            -28.63236
        ],
        "date": "Date: 1994-04-01",
        "id": 592
    },
    {
        "name": "Bongani Bryan Cebekulu",
        "place": "Empangeni",
        "description": "An ANC supporter who was stabbed to death by IFP supporters near Empangeni, Natal, in September 1993. His home had been burnt down a week earlier because his father was a shopsteward and ANC recruiter.",
        "coordinates": [
            31.893293,
            -28.761974
        ],
        "date": "Date: 1993-09-01",
        "id": 593
    },
    {
        "name": "Harriet Cebekulu",
        "place": "Wembezi",
        "description": "An ANC supporter who lost her home in an arson attack by IFP supporters at Wembezi, KwaZulu, near Estcourt, Natal, on 17 August 1992.",
        "coordinates": [
            29.866194,
            -29.01269
        ],
        "date": "Date: 1992-08-17",
        "id": 594
    },
    {
        "name": "Nkosinathi Cebekulu",
        "place": "Mtunzini",
        "description": "An ANC supporter who was shot and injured on 13 April 1993 in Mtunzini, Natal, in ongoing conflict between ANC and IFP supporters in the area.",
        "coordinates": [
            27.7245537,
            -30.588469
        ],
        "date": "Date: 1993-04-13",
        "id": 595
    },
    {
        "name": "Khoto Stephen Cebisa",
        "place": "Murchison",
        "description": "An IFP supporter who was shot and injured by unidentified persons on 8 September 1992 in Murchison, near Port Shepstone, Natal, in continuing conflict between IFP and ANC supporters in the area. Mr Cebisa and others were on their way to an IFP self-defence training camp when they were attacked.",
        "coordinates": [
            30.35735,
            -30.72471
        ],
        "date": "Date: 1992-09-08",
        "id": 596
    },
    {
        "name": "Lindinkosi Blessing Links Cebisa",
        "place": "Port Shepstone",
        "description": "An ANC supporter who was shot and injured during a violent confrontation between ANC and IFP supporters in September 1991 while he was attending an ANC self-defence night camp near Port Shepstone, Natal.",
        "coordinates": [
            30.4297304,
            -30.752126
        ],
        "date": "Date: 1991-09-01",
        "id": 597
    },
    {
        "name": "Mlungisi Cebisa",
        "place": "Blood River",
        "description": "An ANC supporter whose home was attacked by IFP supporters at Uganda Squatter Camp, Blood River, Natal, on 1 December 1991. His brother was stabbed to death during this attack.",
        "coordinates": [
            30.5931,
            -27.8489
        ],
        "date": "Date: 1991-12-01",
        "id": 598
    },
    {
        "name": "Msawenkosi Cebisa",
        "place": "Blood River",
        "description": "An ANC member who was stabbed to death by named IFP supporters in Uganda squatter camp, Blood River, near Dundee, Natal, on 26 March 1990. His home was attacked because he and his brother were members of the ANC.",
        "coordinates": [
            30.5931,
            -27.8489
        ],
        "date": "Date: 1990-03-26",
        "id": 599
    },
    {
        "name": "Abednigo Cele",
        "place": "Port Shepstone",
        "description": "An IFP supporter who was shot at and had his house burnt down by ANC supporters in 1993 in KwaDweshula, Port Shepstone, Natal.",
        "coordinates": [
            30.4297304,
            -30.752126
        ],
        "date": "Date: Unknown",
        "id": 610
    },
    {
        "name": "Abednigo Vilo Cele",
        "place": "Folweni",
        "description": "An ANC supporter who was shot dead by IFP supporters on 24 July 1993 in Folweni, KwaZulu, near Umlazi, Durban.",
        "coordinates": [
            30.886394,
            -29.965717
        ],
        "date": "Date: 1993-07-24",
        "id": 611
    },
    {
        "name": "Agnes Cele",
        "place": "Richmond",
        "description": "An ANC supporter whose house was destroyed in an arson attack at Esimozomeni, near Richmond, Natal, in 1990, in intensifying political conflict in the area.",
        "coordinates": [
            30.93333,
            -29.75
        ],
        "date": "Date: Unknown",
        "id": 613
    },
    {
        "name": "Alfred Mfanafuthi Cele",
        "place": "Port Shepstone",
        "description": "An ANC supporter who was shot dead by IFP supporters while distributing pamphlets in the Port Shepstone area of Natal on 22 April 1994, a week before the April 1994 elections.",
        "coordinates": [
            30.4297304,
            -30.752126
        ],
        "date": "Date: 1994-04-22",
        "id": 614
    },
    {
        "name": "Alfred Mfanafuthi Cele",
        "place": "Port Shepstone",
        "description": "An ANC supporter who was shot dead by IFP supporters while distributing pamphlets in the Port Shepstone area of Natal on 22 April 1994, a week before the April 1994 elections.",
        "coordinates": [
            30.4297304,
            -30.752126
        ],
        "date": "Date: 1994-04-01",
        "id": 614
    },
    {
        "name": "Alson Nenezi Cele",
        "place": "Murchison",
        "description": "Was hacked to death by IFP supporters on 24 March 1991 in Murchison, near Port Shepstone, Natal. Mr Cele was with about thirty youths who were tracking the killers of Sigameko Nyawose, an ANC member in the Madakane area, when the group was ambushed.",
        "coordinates": [
            30.35735,
            -30.72471
        ],
        "date": "Date: 1991-03-24",
        "id": 615
    },
    {
        "name": "Amon Simo Cele",
        "place": "Port Shepstone",
        "description": "A PASO member who was shot dead by IFP supporters on 8 August 1993 in Mtengwane, near Port Shepstone, Natal, in continuing conflict between ANC and IFP supporters in the area.",
        "coordinates": [
            30.4297304,
            -30.752126
        ],
        "date": "Date: 1993-08-08",
        "id": 616
    },
    {
        "name": "Amos Cele",
        "place": "Murchison",
        "description": "An ANC supporter who was shot and stabbed to death when his house was attacked by IFP supporters on 31 July 1991 at Murchison, near Port Shepstone, Natal.",
        "coordinates": [
            30.35735,
            -30.72471
        ],
        "date": "Date: 1991-07-31",
        "id": 617
    },
    {
        "name": "Lungile Bacela",
        "place": "Bacela",
        "description": "An ANC supporter who was found hanged in his cell while serving a fourteen-year sentence at Kirkwood Prison, Cape, in 1988. Mr Bacela had been convicted of a killing that took place during a consumer boycott in 1987.",
        "coordinates": [
            28.64568,
            -31.955212
        ],
        "date": "Date: Unknown",
        "id": 621
    },
    {
        "name": "Mkhombeni Busane",
        "place": "Sonkombo",
        "description": "An ANC supporter who had his home burnt down by IFP supporters at Sonkombo, Ndwedwe, KwaZulu, near Durban, on 20 March 1994. See Sonkombo arson attacks.",
        "coordinates": [
            31.009909,
            -29.86183
        ],
        "date": "Date: 1994-03-20",
        "id": 623
    },
    {
        "name": "Nosheshe Busane",
        "place": "Sonkombo",
        "description": "An ANC supporter who had her home burnt down by IFP supporters at Sonkombo, Ndwedwe, KwaZulu, near Durban, on 16 March 1994. See Sonkombo arson attacks.",
        "coordinates": [
            31.009909,
            -29.86183
        ],
        "date": "Date: 1994-03-16",
        "id": 625
    },
    {
        "name": "Deliweyo Emmanuel Bengu",
        "place": "Amanzimtoti",
        "description": "An ANC branch chairman who was stabbed to death, and his wife seriously injured, by named IFP supporters at KwaMakhutha, Amanzimtoti, near Durban, on 20 July 1991. Mr Bengu was a member of a Peace Committee facilitating negotiations between the ANC and IFP at the time.",
        "coordinates": [
            30.885266,
            -30.052188
        ],
        "date": "Date: 1991-07-20",
        "id": 627
    },
    {
        "name": "Ntombenhle Busane",
        "place": "Sonkombo",
        "description": "An ANC supporter who had her house burnt down by IFP supporters in March 1994 at Sonkombo, Ndwedwe, KwaZulu, near Durban, in intense political conflict in the area. See Sonkombo arson attacks.",
        "coordinates": [
            31.009909,
            -29.86183
        ],
        "date": "Date: 1994-03-01",
        "id": 628
    },
    {
        "name": "Thoko Maureen Busane",
        "place": "Tongaat",
        "description": "An ANC supporter who was shot dead on 20 April 1994 near Tongaat, Natal, in violent conflict between supporters of the ANC and IFP during the run-up to the April 1994 elections.",
        "coordinates": [
            31.116818,
            -29.572149
        ],
        "date": "Date: 1994-04-20",
        "id": 633
    },
    {
        "name": "Thoko Maureen Busane",
        "place": "Tongaat",
        "description": "An ANC supporter who was shot dead on 20 April 1994 near Tongaat, Natal, in violent conflict between supporters of the ANC and IFP during the run-up to the April 1994 elections.",
        "coordinates": [
            31.116818,
            -29.572149
        ],
        "date": "Date: 1994-04-01",
        "id": 633
    },
    {
        "name": "Tholakele Busane",
        "place": "Sonkombo",
        "description": "An ANC supporter who had her home burnt down by IFP supporters at Sonkombo, Ndwedwe, KwaZulu, near Durban, on 16 March 1994. See Sonkombo arson attacks.",
        "coordinates": [
            31.009909,
            -29.86183
        ],
        "date": "Date: 1994-03-16",
        "id": 634
    },
    {
        "name": "Bonbakhe Sipho Busani",
        "place": "Sonkombo",
        "description": "Was shot dead by IFP supporters on 13 December 1993 during intense political conflict at Sonkombo, Ndwedwe, KwaZulu, near Durban. Mr Busani was allegedly believed to be an ANC supporter.",
        "coordinates": [
            31.009909,
            -29.86183
        ],
        "date": "Date: 1993-12-13",
        "id": 635
    },
    {
        "name": "Daniel Busani",
        "place": "Sonkombo",
        "description": "An ANC supporter who had his home burnt down by IFP supporters at Sonkombo, Ndwedwe, KwaZulu, near Durban, on 16 March 1994. See Sonkombo arson attacks.",
        "coordinates": [
            31.009909,
            -29.86183
        ],
        "date": "Date: 1994-03-16",
        "id": 637
    },
    {
        "name": "Kohlwangifile Daniel Busani",
        "place": "Sonkombo",
        "description": "An ANC supporter who had his home burnt down by IFP supporters at Sonkombo, Ndwedwe, KwaZulu, near Durban, on 16 March 1994. See Sonkombo arson attacks.",
        "coordinates": [
            31.009909,
            -29.86183
        ],
        "date": "Date: 1994-03-16",
        "id": 640
    },
    {
        "name": "Sibongile Dolly Busani",
        "place": "Sonkombo",
        "description": "An ANC supporter who had her home burnt down by IFP supporters at Sonkombo, Ndwedwe, KwaZulu, near Durban, on 20 March 1994. See Sonkombo arson attacks.",
        "coordinates": [
            31.009909,
            -29.86183
        ],
        "date": "Date: 1994-03-20",
        "id": 643
    },
    {
        "name": "Ziphozonke Busani",
        "place": "Sonkombo",
        "description": "An ANC supporter who had his home burnt down by IFP supporters at Sonkombo, Ndwedwe, KwaZulu, near Durban, on 16 March 1994. See Sonkombo arson attacks.",
        "coordinates": [
            31.009909,
            -29.86183
        ],
        "date": "Date: 1994-03-16",
        "id": 644
    },
    {
        "name": "Makulele Busobubi",
        "place": "Johannesburg",
        "description": "An ANC supporter who was shot by IFP supporters in Orlando East, Soweto, Johannesburg, in 1992.",
        "coordinates": [
            28.049815,
            -26.205171
        ],
        "date": "Date: Unknown",
        "id": 650
    },
    {
        "name": "Addison Zacharia Buswana",
        "place": "Cape Town",
        "description": "His home was destroyed in two arson attacks by ANC supporters on 3 August and 5 October 1992 respectively, in Mfuleni, Cape Town. He was a community councillor and a target of the ANC campaign to pressure councillors to resign.",
        "coordinates": [
            18.417396,
            -33.92899
        ],
        "date": "Date: 1992-10-05",
        "id": 653
    },
    {
        "name": "Phumephi Florence Butelezi",
        "place": "Wosiyana",
        "description": "Her home was burnt down by ANC supporters on 12 February 1994 during an attack on IFP residents in Wosiyana, Ndwedwe, KwaZulu, near Durban. About twenty deaths of victims, from both the IFP and the ANC, and lat least twenty eight incidents of house burning were recorded in this month. Hundreds of people were forced to flee the area, and schools and shops were forced to close.",
        "coordinates": [
            31.009909,
            -29.86183
        ],
        "date": "Date: 1994-02-12",
        "id": 655
    },
    {
        "name": "(First Name Not Given) Buthelezi",
        "place": "Carletonville",
        "description": "Was shot by a named perpetrator, and others, while on his way home from an ANC meeting in Khutsong, Carletonville, Transvaal on 16 December 1991.",
        "coordinates": [
            27.397673,
            -26.360943
        ],
        "date": "Date: 1991-12-16",
        "id": 657
    },
    {
        "name": "Agnes Buthelezi",
        "place": "Ndwedwe",
        "description": "An IFP supporter who had her house destroyed in an arson attack by ANC supporters in Ndwedwe, KwaZulu, near Durban, in February 1994, in political conflict in the area.",
        "coordinates": [
            31.009909,
            -29.86183
        ],
        "date": "Date: 1994-02-01",
        "id": 658
    },
    {
        "name": "Alfred Phillemon Buthelezi",
        "place": "Katlehong",
        "description": "An ANC member who was abducted, shot, and then hacked to death by members of the ANC self-defence unit (SDU) on 7 December 1993 in Katlehong, Transvaal. Mr Buthelezi was one of 11 ANC members killed - nine through execution - by SDU members in Moleleki Section, Katlehong, during conflict between the local ANC Youth League and SDU members. Buthelezi's son was also killed in the incident. Thirteen SDU members were refused amnesty (AC/1998/0013).",
        "coordinates": [
            28.151111,
            -26.33861
        ],
        "date": "Date: 1993-12-07",
        "id": 659
    },
    {
        "name": "Alson Buthelezi",
        "place": "Bhambayi",
        "description": "An ANC supporter who was displaced from his home in Bhambayi, near KwaMashu, Durban, after it was burnt down in 1992 in intensifying conflict between IFP and ANC supporters in the area.",
        "coordinates": [
            30.9781739,
            -29.70328
        ],
        "date": "Date: Unknown",
        "id": 660
    },
    {
        "name": "Babekile Andrina Buthelezi",
        "place": "KwaMbonambi",
        "description": "An IFP supporter who was stabbed and shot by ANC supporters at her home in KwaMbonambi, KwaZulu, near Richards Bay, Natal, on 14 February 1994 during the run-up to the April 1994 elections. She had been accused of storing weapons for the IFP.",
        "coordinates": [
            32.0577775,
            -28.77079
        ],
        "date": "Date: 1994-02-14",
        "id": 661
    },
    {
        "name": "Babekile Andrina Buthelezi",
        "place": "KwaMbonambi",
        "description": "An IFP supporter who was stabbed and shot by ANC supporters at her home in KwaMbonambi, KwaZulu, near Richards Bay, Natal, on 14 February 1994 during the run-up to the April 1994 elections. She had been accused of storing weapons for the IFP.",
        "coordinates": [
            32.0577775,
            -28.77079
        ],
        "date": "Date: 1994-04-01",
        "id": 661
    },
    {
        "name": "Bangokhwakhe Buthelezi",
        "place": "Tokoza",
        "description": "An IFP supporter who was shot and injured when members of an ANC self-defence unit (SDU) opened fire on IFP supporters on their way to a meeting at the Tokoza stadium on the East Rand, Transvaal, on 8 September 1991. Sixteen people were killed and ten were injured in the attack. One SDU member was granted amnesty for the attack (AC/1999/00225). See Tokoza attacks.",
        "coordinates": [
            28.066667,
            -26.366667
        ],
        "date": "Date: 1991-09-08",
        "id": 662
    },
    {
        "name": "Bhekumusa Mdhakamiseni Buthelezi",
        "place": "Matshana",
        "description": "An IFP supporter who was shot and stabbed to death by named ANC supporters following the funeral of an ANC member in Matshana, KwaZulu, near Empangeni, Natal, on 31 October 1992.",
        "coordinates": [
            31.893293,
            -28.761974
        ],
        "date": "Date: 1992-10-31",
        "id": 663
    },
    {
        "name": "Bongani Justice Buthelezi",
        "place": "Mondlo",
        "description": "An ANC youth leader who was arrested, assaulted and forced by members of the ISU to drink petrol on 24 March 1994 at the Mondlo police station, KwaZulu, near Vryheid, Natal. During the incident, his house was burnt by unidentified persons.",
        "coordinates": [
            30.717694,
            -27.982991
        ],
        "date": "Date: 1994-03-24",
        "id": 665
    },
    {
        "name": "Bonile Girlie Deli Buthelezi",
        "place": "Mahedeni",
        "description": "An IFP supporter who had her home burnt down at Mahedeni, Ndwedwe, KwaZulu, near Durban, on 12 April 1994 in intense conflict between ANC and IFP supporters prior to the April 1994 elections.",
        "coordinates": [
            31.009909,
            -29.86183
        ],
        "date": "Date: 1994-04-12",
        "id": 667
    },
    {
        "name": "Bonile Girlie Deli Buthelezi",
        "place": "Mahedeni",
        "description": "An IFP supporter who had her home burnt down at Mahedeni, Ndwedwe, KwaZulu, near Durban, on 12 April 1994 in intense conflict between ANC and IFP supporters prior to the April 1994 elections.",
        "coordinates": [
            31.009909,
            -29.86183
        ],
        "date": "Date: 1994-04-01",
        "id": 667
    },
    {
        "name": "Boy Buthelezi",
        "place": "Tembisa",
        "description": "Was shot dead by a member of an ANC self-defence unit (SDU) in Tembisa, Transvaal, on 25 October 1993. The SDU member believed that Mr Buthelezi was a member of the Toaster gang. One SDU member was granted amnesty for the killing (AC/1999/0232).",
        "coordinates": [
            28.21768,
            -26.00681
        ],
        "date": "Date: 1993-10-25",
        "id": 668
    },
    {
        "name": "Busisiwe Ntombi Buthelezi",
        "place": "Matshana",
        "description": "An IFP supporter who had her home burnt down by ANC supporters on 13 July 1993 in Matshana, KwaZulu, near Empangeni, Natal. Her husband had been hacked to death by ANC supporters a year earlier.",
        "coordinates": [
            31.893293,
            -28.761974
        ],
        "date": "Date: 1993-07-13",
        "id": 669
    },
    {
        "name": "Bv Buthelezi",
        "place": "Johannesburg",
        "description": "Was shot and wounded when ANC security guards opened fire from the ANC headquarters at Shell House, Johannesburg, on a crowd of IFP marchers, on 28 March 1994. At least nine marchers were killed and around one hundred injured. Ten ANC security guards were granted amnesty (AC/2000/142).",
        "coordinates": [
            28.049815,
            -26.205171
        ],
        "date": "Date: 1994-03-28",
        "id": 670
    },
    {
        "name": "Dudusi Buthelezi",
        "place": "Pinetown",
        "description": "Was stabbed to death by ANC supporters during political conflict in Pinetown, Natal, in December 1998.",
        "coordinates": [
            30.884167,
            -29.81806
        ],
        "date": "Date: 1998-12-01",
        "id": 672
    },
    {
        "name": "Ernestina Hlupepi Buthelezi",
        "place": "Pietermaritzburg",
        "description": "Had her home burnt down by IFP supporters in March 1993 at Swayimane, Table Mountain, near Pietermaritzburg, in ongoing conflict between IFP and ANC supporters in the area.",
        "coordinates": [
            30.39278,
            -29.616785
        ],
        "date": "Date: 1993-03-01",
        "id": 673
    },
    {
        "name": "Henry Ditaba Buthelezi",
        "place": "Katlehong",
        "description": "An ANC supporter and a taxi driver who was shot dead in Katlehong, Transvaall, on 22 February 1990 in conflict between ANC- and IFP-aligned taxi associations following the unbanning of political parties on 2 February 1990.",
        "coordinates": [
            28.151111,
            -26.33861
        ],
        "date": "Date: 1990-02-22",
        "id": 676
    },
    {
        "name": "Henry Ditaba Buthelezi",
        "place": "Katlehong",
        "description": "An ANC supporter and a taxi driver who was shot dead in Katlehong, Transvaall, on 22 February 1990 in conflict between ANC- and IFP-aligned taxi associations following the unbanning of political parties on 2 February 1990.",
        "coordinates": [
            28.151111,
            -26.33861
        ],
        "date": "Date: 1990-02-02",
        "id": 676
    },
    {
        "name": "Hlalele Anna Buthelezi",
        "place": "Mahedeni",
        "description": "An IFP supporter who was forced to flee her home at Mahedeni, Ndwedwe, KwaZulu, near Durban, when it was burnt down by ANC supporters on 12 February 1994. About twenty deaths of victims from both the IFP and the ANC and at least twenty eight incidents of house burning were recorded that month. Hundreds of people were forced to flee the area, and schools and shops were forced to close.",
        "coordinates": [
            31.009909,
            -29.86183
        ],
        "date": "Date: 1994-02-12",
        "id": 677
    },
    {
        "name": "Isabel Buthelezi",
        "place": "Empangeni",
        "description": "An IFP supporter whose home near Empangeni, Natal, was burnt down by ANC supporters on 21 February 1993.",
        "coordinates": [
            31.893293,
            -28.761974
        ],
        "date": "Date: 1993-02-21",
        "id": 679
    },
    {
        "name": "Jabulani Philip Buthelezi",
        "place": "Blood River",
        "description": "An IFP supporter who was severely assaulted and had his home burnt down by a group of ANC supporters in Blood River, near Dundee, Natal, on 20 April 1994 during the run-up to the April 1994 elections.",
        "coordinates": [
            30.5931,
            -27.8489
        ],
        "date": "Date: 1994-04-20",
        "id": 680
    },
    {
        "name": "Jabulani Philip Buthelezi",
        "place": "Blood River",
        "description": "An IFP supporter who was severely assaulted and had his home burnt down by a group of ANC supporters in Blood River, near Dundee, Natal, on 20 April 1994 during the run-up to the April 1994 elections.",
        "coordinates": [
            30.5931,
            -27.8489
        ],
        "date": "Date: 1994-04-01",
        "id": 680
    },
    {
        "name": "Jerry Mbongeleni Buthelezi",
        "place": "Ulundi",
        "description": "An ANC supporter who was assaulted together with two others and then burnt to death by IFP supporters while distributing ANC material in Ulundi, KwaZulu/Natal, on 23 April 1994, four days before the April 1994 elections.",
        "coordinates": [
            31.416172,
            -28.335233
        ],
        "date": "Date: 1994-04-23",
        "id": 682
    },
    {
        "name": "Jerry Mbongeleni Buthelezi",
        "place": "Ulundi",
        "description": "An ANC supporter who was assaulted together with two others and then burnt to death by IFP supporters while distributing ANC material in Ulundi, KwaZulu/Natal, on 23 April 1994, four days before the April 1994 elections.",
        "coordinates": [
            31.416172,
            -28.335233
        ],
        "date": "Date: 1994-04-01",
        "id": 682
    },
    {
        "name": "Jonathan Buthelezi",
        "place": "Tokoza",
        "description": "An IFP supporter who was shot dead when members of an ANC self-defence unit (SDU) opened fire on IFP supporters on their way to a meeting at the Tokoza stadium on the East Rand, Transvaal, on 8 September 1991. Sixteen people were killed and ten were injured in the attack. One SDU member was granted amnesty for the attack (AC/1999/00225). See Tokoza attacks.",
        "coordinates": [
            28.066667,
            -26.366667
        ],
        "date": "Date: 1991-09-08",
        "id": 683
    },
    {
        "name": "Jostine Makho Buthelezi",
        "place": "Johannesburg",
        "description": "An ANC supporter who was killed when AWB members detonated a car bomb in Bree Street, Johannesburg, on 24 April 1994, in an effort to disrupt the electoral process. Seven people were killed and thirteen injured in the blast. Two perpetrators were granted amnesty (AC/1999/0342). See right-wing attacks.",
        "coordinates": [
            28.049815,
            -26.205171
        ],
        "date": "Date: 1994-04-24",
        "id": 684
    },
    {
        "name": "Julia Buthelezi",
        "place": "Katlehong",
        "description": "An ANC supporter who was gang-raped in her home by IFP supporters looking for \u2018comrades\u2019 in Katlehong, Transvaal, in August 1990. Ms Buthelezi\u2019s three sisters and a friend were also gang-raped during this attack. A fourth sister was stabbed in her back.",
        "coordinates": [
            28.151111,
            -26.33861
        ],
        "date": "Date: 1990-08-01",
        "id": 685
    },
    {
        "name": "Mandhla Douglas Buthelezi",
        "place": "Osizweni",
        "description": "An IFP supporter who had his home burnt down by ANC supporters in Osizweni, KwaZulu, near Newcastle, Natal, on 24 April 1993.",
        "coordinates": [
            29.923889,
            -27.76278
        ],
        "date": "Date: 1993-04-24",
        "id": 688
    },
    {
        "name": "Mduduzi Zephania Buthelezi",
        "place": "Mpophomeni",
        "description": "An ANC supporter who had his home burnt down by other ANC supporters at Mpophomeni, KwaZulu, near Howick, Natal, on 1 January 1993 in a serious internal feud within the organisation.",
        "coordinates": [
            30.2242434,
            -29.48362
        ],
        "date": "Date: 1993-01-01",
        "id": 691
    },
    {
        "name": "Mfene Buthelezi",
        "place": "Greytown",
        "description": "An ANC supporter who was shot dead by named members of the IFP in Greytown, Natal, on 25 June 1991.",
        "coordinates": [
            30.588889,
            -29.06056
        ],
        "date": "Date: 1991-06-25",
        "id": 692
    },
    {
        "name": "Mkhombiseni Buthelezi",
        "place": "Empangeni",
        "description": "An IFP leader who was shot dead by ANC supporters on 6 June 1993 in Mtubatuba, near Empangeni, Natal.",
        "coordinates": [
            31.893293,
            -28.761974
        ],
        "date": "Date: 1993-06-06",
        "id": 694
    },
    {
        "name": "Mkhulu Joseph Buthelezi",
        "place": "Ndwedwe",
        "description": "An IFP supporter who had his home burnt down by ANC supporters on 12 February 1994 in Ndwedwe, KwaZulu, near Durban, during the run-up to the April 1994 elections. At least twenty eight incidents of house burning were recorded that month. Hundreds of people were forced to flee the area, and schools and shops were forced to close.",
        "coordinates": [
            31.009909,
            -29.86183
        ],
        "date": "Date: 1994-02-12",
        "id": 695
    },
    {
        "name": "Mkhulu Joseph Buthelezi",
        "place": "Ndwedwe",
        "description": "An IFP supporter who had his home burnt down by ANC supporters on 12 February 1994 in Ndwedwe, KwaZulu, near Durban, during the run-up to the April 1994 elections. At least twenty eight incidents of house burning were recorded that month. Hundreds of people were forced to flee the area, and schools and shops were forced to close.",
        "coordinates": [
            31.009909,
            -29.86183
        ],
        "date": "Date: 1994-04-01",
        "id": 695
    },
    {
        "name": "Ms (First Name Not Given) Buthelezi",
        "place": "Empangeni",
        "description": "Was shot and severely injured by unidentified attackers at her home in Empangeni, Natal, in the early 1990s. Ms Buthelezi's community was regarded as ANC-aligned. Her grandson was abducted during the attack and later found dead.",
        "coordinates": [
            31.893293,
            -28.761974
        ],
        "date": "Date: Unknown",
        "id": 697
    },
    {
        "name": "Mshiyeni Alfred Buthelezi",
        "place": "Ezakheni",
        "description": "An ANC supporter who was beaten, shot at, and had his home burnt down, by named IFP supporters in Ezakheni, KwaZulu, near Ladysmith, Natal, on 17 November 1992.",
        "coordinates": [
            29.8876994,
            -28.63236
        ],
        "date": "Date: 1992-11-17",
        "id": 698
    },
    {
        "name": "Msizi Buthelezi",
        "place": "Wembezi",
        "description": "Buthelezi, whose family supported the ANC, was stabbed to death and mutilated by named IFP supporters on 16 December 1991 in Wembezi, KwaZulu, near Estcourt, Natal.",
        "coordinates": [
            29.866194,
            -29.01269
        ],
        "date": "Date: 1991-12-16",
        "id": 699
    },
    {
        "name": "Mthobi Anton Buthelezi",
        "place": "Vryheid",
        "description": "An IFP supporter whose home in Vryheid, Natal, was burnt down by ANC supporters on 20 April 1994, in the run-up to the April 1994 elections.",
        "coordinates": [
            30.85,
            -27.7667
        ],
        "date": "Date: 1994-04-20",
        "id": 700
    },
    {
        "name": "Mthobi Anton Buthelezi",
        "place": "Vryheid",
        "description": "An IFP supporter whose home in Vryheid, Natal, was burnt down by ANC supporters on 20 April 1994, in the run-up to the April 1994 elections.",
        "coordinates": [
            30.85,
            -27.7667
        ],
        "date": "Date: 1994-04-01",
        "id": 700
    },
    {
        "name": "Muzinamandla Buthelezi",
        "place": "Ndwedwe",
        "description": "Was shot during conflict between ANC and IFP supporters in the area. He died from his wounds in Ndwedwe, KwaZulu, near Durban on 5 February 1994. At least twenty eight incidents of house burning were recorded that month. Hundreds of people were forced to flee the area, and schools and shops were forced to close.",
        "coordinates": [
            31.009909,
            -29.86183
        ],
        "date": "Date: 1994-02-05",
        "id": 701
    },
    {
        "name": "Nathaniel Buthelezi",
        "place": "Phola",
        "description": "An employee of Rand Water who was shot and injured by members of an ANC self-defence unit (SDU) while he was travelling in a taxi past the informal settlement of Phola Park in Tokoza, Transvaal, on 26 February 1992. Four people died and eight were injured. One SDU member was granted amnesty for the attack on the taxi (AC/1999/0225).",
        "coordinates": [
            29.0369444,
            -25.99583
        ],
        "date": "Date: 1992-02-26",
        "id": 702
    },
    {
        "name": "Nelson Buthelezi",
        "place": "Tokoza",
        "description": "An ANC supporter who was burnt and shot dead in Tokoza, Transvaal, on 3 August 1993 in ongoing political conflict on the East Rand which escalated after an ANC march past a Tokoza hostel on 22 May, 1993. The clashes which followed led to more than eighty deaths.",
        "coordinates": [
            28.066667,
            -26.366667
        ],
        "date": "Date: 1993-08-03",
        "id": 703
    },
    {
        "name": "Ngqangqa Jacob Buthelezi",
        "place": "Mahlabatini",
        "description": "An IFP supporter who had his four houses at Mahlabatini, near Ulundi, KwaZulu, destroyed by ANC supporters on 15 June, 1991.",
        "coordinates": [
            27.2483204,
            -30.60063
        ],
        "date": "Date: Unknown",
        "id": 704
    },
    {
        "name": "Ntombinkulu Kate Buthelezi",
        "place": "Madadeni",
        "description": "An ANC supporter who had her home burnt down by IFP supporters at Madadeni, KwaZulu, near Newcastle, Natal, on 2 December 1991. The same people who burnt down Ms Buthelezi\u2019s home had earlier that day killed her husband when a dispute at Durnacol Mines escalated into violent ethnic conflict.",
        "coordinates": [
            30.07185,
            -27.75052
        ],
        "date": "Date: 1991-12-02",
        "id": 708
    },
    {
        "name": "Ntombizonke Mavis Buthelezi",
        "place": "Katlehong",
        "description": "An ANC supporter who was gang-raped in her home by IFP supporters looking for \u2018comrades\u2019 in Katlehong, Transvaal, in August 1990. Ms Buthelezi\u2019s three sisters and a friend were also gang-raped during this attack. A fourth sister was stabbed in her back.",
        "coordinates": [
            28.151111,
            -26.33861
        ],
        "date": "Date: 1990-08-01",
        "id": 709
    },
    {
        "name": "Petros Mehlo Buthelezi",
        "place": "Mpumalanga",
        "description": "Was stabbed to death by ANC supporters during intense political conflict in Mpumalanga, KwaZulu, near Durban, on 16 December 1989.",
        "coordinates": [
            31.009909,
            -29.86183
        ],
        "date": "Date: 1989-12-16",
        "id": 710
    },
    {
        "name": "Princess Buthelezi",
        "place": "Katlehong",
        "description": "An ANC supporter who was gang-raped in her home by IFP supporters looking for \u2018comrades\u2019 in August 1990 in Katlehong, Transvaal. Ms Buthelezi\u2019s three sisters and a friend were also gangraped during this attack. A fourth sister was stabbed in her back.",
        "coordinates": [
            28.151111,
            -26.33861
        ],
        "date": "Date: 1990-08-01",
        "id": 712
    },