[
    {
        "name": "Thabo Simon AARON",
        "place": "Bethulie",
        "description": "An ANCYL member who was shot and severely injured by SAP members at Lephoi, Bethulie, Orange Free State (OFS) on 17 April 1991. Police opened fire on a gathering at an ANC supporter's house following a dispute between two neighbours, one of whom was linked to the ANC and the other to the SAP and a councillor.",
        "coordinates": [
            25.97552,
            -30.50329
        ],
        "date": "Date: 1991-04-17"
    },
    {
        "name": "Montaigne ABBOTT",
        "place": "Messina",
        "description": "A member of the SADF who was severely injured in a landmine explosion in Messina, Transvaal, on 5 May 1987.",
        "coordinates": [
            30.039597,
            -22.351308
        ],
        "date": "Date: 1987-05-05"
    },
    {
        "name": "Nzaliseko Christopher ABRAHAM",
        "place": "Mdantsane",
        "description": "A COSAS supporter who was kicked and beaten with batons and rifle-butts by members of the Ciskei Police during protests against the Ciskei government at Zwelitsha and Mdantsane, Ciskei, in September 1985.",
        "coordinates": [
            27.6708791,
            -32.958623
        ],
        "date": "Date: 1985-09-01"
    },
    {
        "name": "Achmat Fardiel ABRAHAMS",
        "place": "Athlone",
        "description": "Was shot and blinded in one eye by members of the SAP in Athlone, Cape Town, in August 1976, after the Soweto uprising.",
        "coordinates": [
            18.50214,
            -33.96722
        ],
        "date": "Date: 1976-08-01"
    },
    {
        "name": "Annalene Mildred ABRAHAMS",
        "place": "Robertson",
        "description": "Was shot and injured by members of the SAP in Robertson, Cape, on 11 April 1990. Police fired teargas into a crowded hall where residents were meeting. Over one hundred people were treated for injuries relating to the subsequent stampede and shootings.",
        "coordinates": [
            19.883611,
            -33.80222
        ],
        "date": "Date: 1990-04-11"
    },
    {
        "name": "Ashraf ABRAHAMS",
        "place": "Athlone",
        "description": "Was shot and injured by members of the Railway Police on 15 October 1985 in Athlone, in the Trojan Horse incident, Cape Town.",
        "coordinates": [
            18.50214,
            -33.96722
        ],
        "date": "Date: 1985-10-15"
    },
    {
        "name": "Derrek ABRAHAMS",
        "place": "Gelvandale",
        "description": "A street committee member who was shot dead by members of the SAP at Gelvandale, Port Elizabeth, on 3 September 1990.",
        "coordinates": [
            25.5516667,
            -33.91611
        ],
        "date": "Date: 1990-09-03"
    },
    {
        "name": "Moegsien ABRAHAMS",
        "place": "Cape Town",
        "description": "Was stabbed and stoned to death by a group of UDF supporters in Mitchells Plain, Cape Town, on 25 May 1986, during a UDF rally following allegations that he was an informer. UDF leaders attempted to shield him from attack, but Mr Abrahams fled the venue. He was then pursued and killed.",
        "coordinates": [
            18.417396,
            -33.92899
        ],
        "date": "Date: 1986-05-25"
    },
    {
        "name": "Rashid ABRAHAMS",
        "place": "Cape Town",
        "description": "Was burnt to death, together with a colleague, when their vehicle was stoned and petrol bombed by protesting youths near Crossroads, Cape Town, on 28 April 1986. Both were employees of an electrical firm and were returning to their office when they were attacked.",
        "coordinates": [
            18.417396,
            -33.92899
        ],
        "date": "Date: 1986-04-28"
    },
    {
        "name": "Toyer ABRAHAMS",
        "place": "Athlone",
        "description": "Was shot and injured by members of the Railway Police on 15 October 1985 in Athlone, Cape Town, during the Trojan Horse incident. See Trojan Horse incident, Cape Town. ",
        "coordinates": [
            18.50214,
            -33.96722
        ],
        "date": "Date: 1985-10-15"
    },
    {
        "name": "EM ACHHURST",
        "place": "Pretoria",
        "description": "Was severely injured when MK operatives detonated an explosive outside the South African Air Force (SAAF) headquarters in Church Street, Pretoria, on 20 May 1983. Twenty one people were killed and two hundred and seventeen were injured. The overall commander of MK\u2019s Special Operations Unit and two MK operatives were granted amnesty (AC/2001/003 and AC/2001/023). See Church Street Bombing, Pretoria. ",
        "coordinates": [
            28.1879444,
            -25.74594
        ],
        "date": "Date: 1983-05-20"
    },
    {
        "name": "David Jacobus ACKERMAN",
        "place": "Cape Town",
        "description": "Was injured when APLA operatives threw hand grenades at and opened fire on the congregation of St James\u2019 Church, Kenilworth, Cape Town, on 25 July 1993. Eleven people were killed and fifty eight wounded in the attack.  Three of four APLA members were granted amnesty for the attack. The fourth had his application struck off the roll for failing to attend the amnesty hearing (AC/1998/0018). See APLA attacks. ",
        "coordinates": [
            18.417396,
            -33.92899
        ],
        "date": "Date: 1993-07-25"
    },
    {
        "name": "Marita ACKERMAN",
        "place": "Cape Town",
        "description": "Was shot and killed when APLA operatives threw hand grenades at and opened fire on the congregation of St James\u2019 Church, Kenilworth, Cape Town, on 25 July 1993. Eleven people were killed and fifty eight wounded in the attack. Three of four APLA members were granted amnesty for the attack. The fourth had his application struck off the roll for failing to attend the amnesty hearing (AC/1998/0018). See APLA attacks. ",
        "coordinates": [
            18.417396,
            -33.92899
        ],
        "date": "Date: 1993-07-25"
    },
    {
        "name": "Gerhardus Oliver ACKERMANN",
        "place": "Pretoria",
        "description": "Was injured when MK operatives detonated an explosive in a car outside the South African Air Force (SAAF) headquarters in Church Street, Pretoria, on 20 May 1983. Twenty one people were killed and two hundred and seventeen were injured. The overall commander of MK\u2019s Special Operations Unit and two MK operatives were granted amnesty (AC/2001/003 and AC/2001/023). See Church Street Bombing, Pretoria.)",
        "coordinates": [
            28.1879444,
            -25.74594
        ],
        "date": "Date: 1983-05-20"
    },
    {
        "name": "Alfred Mawonga ADAM",
        "place": "New Brighton",
        "description": "A UDF supporter who was shot dead by members of the Municipal Police at New Brighton, Port Elizabeth, on 14 February 1987.",
        "coordinates": [
            25.5955556,
            -33.88556
        ],
        "date": "Date: 1987-02-14"
    },
    {
        "name": "Alfred Mawonga ADAM",
        "place": "New Brighton",
        "description": "A UDF supporter who was shot dead by members of the Municipal Police at New Brighton, Port Elizabeth, on 14 February 1987.",
        "coordinates": [
            25.5955556,
            -33.88556
        ],
        "date": "Date: 1987-02-14"
    },
    {
        "name": "Zwelinzima Sidwell ADAMS",
        "place": "Cape Town",
        "description": "Was severely beaten and shot in the leg in Guguletu, Cape Town, in 1986, during political conflict between Witdoeke vigilantes from Crossroads and UDF supporters in KTC.",
        "coordinates": [
            18.417396,
            -33.92899
        ],
        "date": "Date: Unknown"
    },
    {
        "name": "Koos ADAMS",
        "place": "Graaff-Reinet",
        "description": "A UDF organiser who was detained for three days during a consumer boycott in Graaff-Reinet, Cape, in June 1985. In detention he was beaten by named members of the SAP. From June to December 1985, he was held at Middelburg Prison, Cape.",
        "coordinates": [
            24.5336485,
            -32.25354
        ],
        "date": "Date: 1985-06-01"
    },
    {
        "name": "Koos ADAMS",
        "place": "Graaff-Reinet",
        "description": "A UDF organiser who was detained for three days during a consumer boycott in Graaff-Reinet, Cape, in June 1985. In detention he was beaten by named members of the SAP. From June to December 1985, he was held at Middelburg Prison, Cape.",
        "coordinates": [
            24.5336485,
            -32.25354
        ],
        "date": "Date: 1985-12-01"
    },
    {
        "name": "Magadien ADAMS",
        "place": "Cape Town",
        "description": "Was injured when the car in which he was travelling was petrol bombed in Khayelitsha, Cape Town, on 15 April 1993, during widespread protest and unrest following the killing of SACP leader, Chris Hani. His brother-in-law was burnt to death and one person was injured in the attack.",
        "coordinates": [
            18.417396,
            -33.92899
        ],
        "date": "Date: 1993-04-15"
    },
    {
        "name": "Noel ADAMS",
        "place": "Graaff-Reinet",
        "description": "A UDF supporter who was subjected to psychological torture by members of the SAP while in police custody in Graaff-Reinet, Cape, during the 1985 school boycotts.",
        "coordinates": [
            24.5336485,
            -32.25354
        ],
        "date": "Date: Unknown"
    },
    {
        "name": "Sandra Joyce ADAMS",
        "place": "Athlone",
        "description": "Was shot dead by members of the SAP in Athlone, Cape Town, on 16 September 1976, while she was standing on the balcony of her third floor flat watching police action against protesters after the Soweto uprising.",
        "coordinates": [
            18.50214,
            -33.96722
        ],
        "date": "Date: 1976-09-16"
    },
    {
        "name": "Motlalepule Sunnyboy Slovo ADONIS",
        "place": "Reddersburg",
        "description": "An ANCYL supporter who was detained and severely beaten by members of the SAP at the Grootvlei police station in Reddersburg, Orange Free State, in May 1990. This took place during a local boycott, during which time several youth activists were assaulted and tortured by the police.",
        "coordinates": [
            26.16773,
            -29.653
        ],
        "date": "Date: 1990-05-01"
    },
    {
        "name": "Sandra Noreen ADONIS",
        "place": "Bonteheuwel",
        "description": "A member of the BMW who was arrested in Bonteheuwel, Cape Town, in 1988, and tortured by named members of a special police Unrest Investigation Unit.",
        "coordinates": [
            18.554446,
            -33.950161
        ],
        "date": "Date: Unknown"
    },
    {
        "name": "Phineus Zenzile ADOONS",
        "place": "Olifantshoek",
        "description": "An ANC supporter who was shot and injured when members of the SAP opened fire on a crowd of people participating in a protest march in Olifantshoek, Cape, on 16 June 1992.",
        "coordinates": [
            22.736214,
            -27.94261
        ],
        "date": "Date: 1992-06-16"
    },
    {
        "name": "Noel John ADRIAANSE",
        "place": "Cape Town",
        "description": "Was shot dead by members of the SAP in Hanover Park, Cape Town, on 2 September 1976. He was on his way to buy bread during the political unrest following the Soweto uprising.",
        "coordinates": [
            18.417396,
            -33.92899
        ],
        "date": "Date: 1976-09-02"
    },
    {
        "name": "Sipho Victor AFRICANDER",
        "place": "Imbali",
        "description": "A cleric and chairperson of the Pietermaritzburg Council of Churches who was shot dead in Imbali, Pietermaritzburg, on 4 May 1990 while taking his child to school. A named Inkatha member was convicted for the murder, but was later acquitted on appeal.",
        "coordinates": [
            30.3472222,
            -29.65889
        ],
        "date": "Date: 1990-05-04"
    },
    {
        "name": "Anna AFRIKA",
        "place": "Kakamas",
        "description": "Was shot and injured by a named SAP member in Kakamas, Cape, on 13 February 1988. The perpetrator opened fire on residents outside a house being raided by police. Two children were shot dead and thirteen people injured.",
        "coordinates": [
            20.614696,
            -28.773411
        ],
        "date": "Date: 1988-02-13"
    },
    {
        "name": "Dick AFRIKA",
        "place": "Schweizer-Reneke",
        "description": "Was detained by alleged members of the SAP at Ipelegeng, Schweizer-Reneke, Transvaal, in March 1990.",
        "coordinates": [
            25.332025,
            -27.19336
        ],
        "date": "Date: 1990-03-01"
    },
    {
        "name": "Jan AFRIKA",
        "place": "Wolseley",
        "description": "Was shot and injured by named SAP members during a legal protest march in Wolseley, Cape, on 24 November 1990.",
        "coordinates": [
            19.20052,
            -33.414029
        ],
        "date": "Date: 1990-11-24"
    },
    {
        "name": "Pieter AFRIKA",
        "place": "Montagu",
        "description": "Was shot dead by members of the SAP in Montagu, Cape, on 11 September 1976. He was in a vehicle with other protesters when he was shot at after the Soweto uprising had spread to a number of rural Cape towns.",
        "coordinates": [
            20.121061,
            -33.786638
        ],
        "date": "Date: 1976-09-11"
    },
    {
        "name": "Joyce AGGETT",
        "place": "Somerset West",
        "description": "As the mother of Neil Aggett, who died in detention, Joyce was subjected to an unlawful search of her home in Somerset West, Cape, in her absence, by the Witwatersrand Security Branch, during April 1982. One Security Branch operative was granted amnesty for the unlawful search (AC/2001/005). He testified that he had been gathering evidence to be used at the inquest into Dr Aggett\u2019s death, in order to support the Security Police\u2019s contention that Dr Aggett had committed suicide.",
        "coordinates": [
            18.84929,
            -34.0821
        ],
        "date": "Date: 1982-04-01"
    },
    {
        "name": "Neil Hudson AGGETT",
        "place": "Johannesburg",
        "description": "Died in detention at John Vorster Square, Johannesburg, on 5 February 1982, following a period of torture, including sixty consecutive hours of interrogation and two months of solitary confinement. Mr Aggett was the Transvaal Secretary for the Food and Allied Workers Union. ",
        "coordinates": [
            28.049815,
            -26.205171
        ],
        "date": "Date: 1982-02-05"
    },
    {
        "name": "Wezeka Getrude ALA",
        "place": "Jansenville",
        "description": "Was beaten by members of the SAP in April 1985 during consumer boycotts at Jansenville, Cape.",
        "coordinates": [
            24.670833,
            -32.94333
        ],
        "date": "Date: 1985-04-01"
    },
    {
        "name": "Wezeka Getrude ALA",
        "place": "Jansenville",
        "description": "Was beaten by members of the SAP in April 1985 during consumer boycotts at Jansenville, Cape.",
        "coordinates": [
            24.670833,
            -32.94333
        ],
        "date": "Date: 1985-04-01"
    },
    {
        "name": "Nombuyiselo Francis ALBERT",
        "place": "Entshawini",
        "description": "Was beaten and stabbed to death on 10 December 1992 in Entshawini, KwaZulu, near Stanger, Natal, by named IFP supporters who thought she was an ANC supporter.",
        "coordinates": [
            31.2888955,
            -29.33968
        ],
        "date": "Date: 1992-12-10"
    },
    {
        "name": "Tammas Edward ALEXANDER",
        "place": "Durban",
        "description": "An ANC supporter who suffered extensive damage to his home and business premises in an explosion triggered by the opening of a booby-trapped computer on 2 October 1990 in Durban. One person was killed in the attack, allegedly carried out by named right-wing extremists.",
        "coordinates": [
            31.009909,
            -29.86183
        ],
        "date": "Date: 1990-10-02"
    },
    {
        "name": "Nomthandazo Amelia ALFRED",
        "place": "Ashton",
        "description": "Was arrested after arson attacks on the homes of vigilantes in Zolani, Ashton, Cape, on 20 November 1985. She was convicted of arson and public violence in September 1986 and sentenced to eight years\u2019 imprisonment.",
        "coordinates": [
            20.055945,
            -33.83136
        ],
        "date": "Date: 1985-11-20"
    },
    {
        "name": "Nomthandazo Amelia ALFRED",
        "place": "Ashton",
        "description": "Was arrested after arson attacks on the homes of vigilantes in Zolani, Ashton, Cape, on 20 November 1985. She was convicted of arson and public violence in September 1986 and sentenced to eight years\u2019 imprisonment.",
        "coordinates": [
            20.055945,
            -33.83136
        ],
        "date": "Date: 1986-09-01"
    },
    {
        "name": "Abdurahman ALLIE",
        "place": "Cape Town",
        "description": "Was shot dead by members of the SAP in Ravensmead, Cape Town, on 7 September 1976, after the Soweto uprising.",
        "coordinates": [
            18.417396,
            -33.92899
        ],
        "date": "Date: 1976-09-07"
    },
    {
        "name": "Beverly Meryl ALLISON",
        "place": "Johannesburg",
        "description": "Was injured when MK operatives detonated a limpet mine in a dustbin at the Vanderbijl Square bus terminus, Johannesburg, on 21 September 1988. Nineteen people were injured and a number of vehicles and buildings were damaged. Two MK Special Operations operatives were granted amnesty (AC/2000/056). A late application by a third MK operative was dismissed.",
        "coordinates": [
            28.049815,
            -26.205171
        ],
        "date": "Date: 1988-09-21"
    },
    {
        "name": "Walter Titus (aka \u2018Shakes Lerumo\u2019) ALSET",
        "place": "Alldays",
        "description": "He was an MK operative who was shot dead in an ambush at Alldays, Transvaal, near the Botswana border, on 10 July 1986 by a joint team comprising SADF Special Forces and Far Northern Transvaal Security Branch members. Fourteen Security Branch operatives, including the divisional commander, applied for amnesty. Nine of these applications were refused (AC/1999/0176).",
        "coordinates": [
            29.093362,
            -22.66392
        ],
        "date": "Date: 1986-07-10"
    },
    {
        "name": "Sandile Alfred AM",
        "place": "Uitenhage",
        "description": "A UDF supporter who was burnt to death by a named perpetrator during a consumer boycott in KwaNobuhle, Uitenhage, Cape, on 14 September 1985, after he was accused of being a state collaborator.",
        "coordinates": [
            25.3961302,
            -33.76743
        ],
        "date": "Date: 1985-09-14"
    },
    {
        "name": "Jonathan Maurice AMERICA",
        "place": "Kimberley",
        "description": "Was injured in a hand grenade explosion in Kimberley, Cape, on 25 May 1993, during an ANC protest march to the Bophuthatswana consulate. Two MK operatives threw a hand grenade at the building, but it bounced back into the crowd, killing one person and injuring forty one others. Two ANC members were wrongly convicted of the killing. Four MK and ANC members, two of whom denied guilt, applied for amnesty, which was refused (AC/2000/053 and AC/2000/241).",
        "coordinates": [
            24.762315,
            -28.732262
        ],
        "date": "Date: 1993-05-25"
    },
    {
        "name": "Felicity AMOD",
        "place": "Johannesburg",
        "description": "Was injured when members of MK\u2019s Special Operations Unit detonated an explosive in a car outside the SADF Witwatersrand Command headquarters in Johannesburg on 30 July 1987. At least sixty eight people were injured. Three MK operatives and one UDF supporter linked to MK were granted amnesty for their roles in this attack (AC/2001/0003 and AC/2000/248).",
        "coordinates": [
            28.049815,
            -26.205171
        ],
        "date": "Date: 1987-07-30"
    },
    {
        "name": "Billy Veli AMTHENJA",
        "place": "Johannesburg",
        "description": "Amthenja disappeared with his brother, Eric Msimango, while travelling from Tokoza, Transvaal, to Pretoria, on 20 November 1993. An IFP march from Johannesburg to Pretoria was in progress at the time. He has never been seen since and is presumed dead.",
        "coordinates": [
            28.049815,
            -26.205171
        ],
        "date": "Date: 1993-11-20"
    },
    {
        "name": "Cynthia Valerie ANDERSON",
        "place": "Pretoria",
        "description": "Was shot dead in the Silverton bank siege in Pretoria, on 25 January 1980. Three MK members held her hostage during a raid on the bank. Ms Anderson, one other civilian and the three MK members were all killed during a gunfight after police stormed the bank. Several other people were injured.",
        "coordinates": [
            28.1879444,
            -25.74594
        ],
        "date": "Date: 1980-01-25"
    },
    {
        "name": "Gavin ANDERSON",
        "place": "Johannesburg",
        "description": "A trade unionist in Johannesburg who was banned in 1976 and subjected to ongoing harassment during March 1977. A Witwatersrand Security Branch operative was granted amnesty for harassment (AC/2001/005).",
        "coordinates": [
            28.049815,
            -26.205171
        ],
        "date": "Date: 1977-03-01"
    },
    {
        "name": "Peter ANDERSON",
        "place": "Cape Town",
        "description": "Was shot and killed when APLA operatives threw hand grenades at and opened fire on the congregation of St James\u2019 Church, Kenilworth, Cape Town, on 25 July 1993. Eleven people were killed and fifty eight wounded in the attack. Three of four APLA members were granted amnesty for the attack. The fourth had his application struck off the roll for failing to attend the amnesty hearing (AC/1998/0018). See APLA attacks. ",
        "coordinates": [
            18.417396,
            -33.92899
        ],
        "date": "Date: 1993-07-25"
    },
    {
        "name": "Sapper A ANDERSON",
        "place": "Pretoria",
        "description": "Was injured when MK operatives detonated an explosive in a car outside the South African Air Force (SAAF) headquarters in Church Street, Pretoria, on 20 May 1983. Twenty one people were killed and two hundred and seventeen injured. The overall commander of MK\u2019s Special Operations Unit and two MK operatives were granted amnesty (AC/2001/003 and AC/2001/023). See Church Street Bombing, Pretoria. ",
        "coordinates": [
            28.1879444,
            -25.74594
        ],
        "date": "Date: 1983-05-20"
    },
    {
        "name": "Niklaas ANDREAS",
        "place": "Carnarvon",
        "description": "Was arrested with ten friends on 16 June 1986 in Carnavon, Cape, for wearing black ties commemorating those who died in the Soweto uprising. He was repeatedly beaten by named members of the SAP at the police station and detained for seventy two days under emergency regulations in Carnarvon, and then in Victor Verster prison, Paarl, Cape. See police brutality.",
        "coordinates": [
            22.133026,
            -30.968266
        ],
        "date": "Date: 1986-06-16"
    },
    {
        "name": "Daniel ANDREWS",
        "place": "Langa",
        "description": "A municipal policeman who was shot dead by UDF and ANC supporters near the Langa police station, Uitenhage, Cape, on 20 April 1990. Two UDF/ANC supporters were granted amnesty for the incident (AC/99/0280).",
        "coordinates": [
            18.53,
            -33.94556
        ],
        "date": "Date: 1990-04-20"
    },
    {
        "name": "Levena ANDREWS",
        "place": "Paarl",
        "description": "Was shot and injured by members of the SAP in Paarl, Cape, on 9 September 1976, while walking in the street. Three women were shot dead in Paarl that day, after the Soweto uprising had spread to the Cape.",
        "coordinates": [
            18.975228,
            -33.733781
        ],
        "date": "Date: 1976-09-09"
    },
    {
        "name": "Piet September ANDREWS",
        "place": "Wolseley",
        "description": "Was injured when he was shot in the back by SAP members in Wolseley, Cape, on 24 November 1990, during a legal community protest.",
        "coordinates": [
            19.20052,
            -33.414029
        ],
        "date": "Date: 1990-11-24"
    },
    {
        "name": "Karl ANDREY",
        "place": "Cape Town",
        "description": "Was shot and killed when APLA operatives threw hand grenades at and opened fire on the congregation of St James\u2019 Church, Kenilworth, Cape Town, on 25 July 1993. Eleven people were killed and fifty eight wounded in the attack. Three of four APLA members were granted amnesty for the attack. The fourth had his application struck off the roll for failing to attend the amnesty hearing (AC/1998/0018). See APLA attacks. ",
        "coordinates": [
            18.417396,
            -33.92899
        ],
        "date": "Date: 1993-07-25"
    },
    {
        "name": "Edwin ANGLESS",
        "place": "Caledon",
        "description": "A NUSAS activist who was detained on 16 June 1980 and held in solitary confinement for eight and a half weeks in Caledon Square police station, Cape Town.",
        "coordinates": [
            19.426502,
            -34.229974
        ],
        "date": "Date: 1980-06-16"
    },
    {
        "name": "Somasundram Manas ANTHONY",
        "place": "Pietersburg",
        "description": "Was shot through the head and killed on 15 November 1988 by members of the SADF in Pietersburg, Transvaal. Mr Anthony was allegedly killed because he had seen confidential information while working for the SADF.",
        "coordinates": [
            29.468851,
            -23.904485
        ],
        "date": "Date: 1988-11-15"
    },
    {
        "name": "Mxolisi Patrick ANTONI",
        "place": "Port Elizabeth",
        "description": "A BCM member who was arrested in connection with the killing of a suspected collaborator in Port Elizabeth on 20 September 1977. While in detention, he was assaulted by members of the SAP.",
        "coordinates": [
            25.570066,
            -33.917988
        ],
        "date": "Date: 1977-09-20"
    },
    {
        "name": "Thembisile ANTONI",
        "place": "Alfred",
        "description": "An AZAPO member who was \u2018necklaced\u2019 to death by COSAS and UDF supporters in Port Alfred, Cape, in June 1985, during political conflict between the UDF and AZAPO in the area. Several other AZAPO members were assaulted and injured in the attack.",
        "coordinates": [
            30.036779,
            -30.710087
        ],
        "date": "Date: 1985-06-01"
    },
    {
        "name": "Alex ANVARI",
        "place": "Mdantsane",
        "description": "A member of the Baha\u2019i faith community who died when he and two others were shot and killed by APLA operatives at the Baha\u2019i Faith Centre, Mdantsane, Ciskei, on 13 March 1994. The victims, though of Iranian extraction, were allegedly regarded by the perpetrators as \u2018whites\u2019. A vehicle was also stolen during the attack. Two perpetrators were granted amnesty (AC/2001/271). See APLA attacks. ",
        "coordinates": [
            27.6708791,
            -32.958623
        ],
        "date": "Date: 1994-03-13"
    },
    {
        "name": "G ANZILOTTI",
        "place": "Pretoria",
        "description": "Was injured when MK operatives detonated an explosive in a car outside the South African Air Force (SAAF) headquarters in Church Street, Pretoria, on 20 May 1983. Twenty one people were killed and two hundred and seventeen were injured. The overall commander of M K \u2019s Special Operations Unit and two MK operatives were granted amnesty (AC/2001/003 and AC/2001/023). See Church Street Bombing, Pretoria. ",
        "coordinates": [
            28.1879444,
            -25.74594
        ],
        "date": "Date: 1983-05-20"
    },
    {
        "name": "Doly Elizabeth APHANE",
        "place": "Hammanskraal",
        "description": "An ANC member whose house and tuck shop in Sekampaneng, Hammanskraal, Transvaal, were demolished on 8 February 1993 by members of the Bophuthatswana Police, who were acting on an eviction order from the Bophuthatswana government.",
        "coordinates": [
            28.286996,
            -25.40892
        ],
        "date": "Date: 1993-02-08"
    },
    {
        "name": "Karl Maisela APHANE",
        "place": "Middelburg",
        "description": "A COSAS supporter who was tortured in detention in September 1986 in Middelburg prison, Transvaal, during student unrest in the area.",
        "coordinates": [
            29.46529,
            -25.77693
        ],
        "date": "Date: 1986-09-01"
    },
    {
        "name": "Matsosale William APHANE",
        "place": "Johannesburg",
        "description": "An ANC supporter who died when an IFP member assaulted him and threw him from a moving train in the Johannesburg area on 29 November 1991. One perpetrator was granted amnesty (AC/1999/0256). See train violence.",
        "coordinates": [
            28.049815,
            -26.205171
        ],
        "date": "Date: 1991-11-29"
    },
    {
        "name": "Tiny APHANE",
        "place": "Motetema",
        "description": "Was arrested in September 1986 by the SAP and imprisoned in Motetema, Lebowa. The police were apparently seeking her brother because of his affiliation to COSAS.",
        "coordinates": [
            29.461857,
            -25.094681
        ],
        "date": "Date: 1986-09-01"
    },
    {
        "name": "Mzikayise APLENI",
        "place": "Port Elizabeth",
        "description": "A UDF supporter who was shot dead by a member of the SAP in Zwide, Port Elizabeth, on 7 October 1986 during the State of Emergency. A 1987 inquest concluded that no one was responsible for her death. See police brutality.",
        "coordinates": [
            25.570066,
            -33.917988
        ],
        "date": "Date: 1986-10-07"
    },
    {
        "name": "Wellington Sicelo APLENI",
        "place": "Port Elizabeth",
        "description": "A UDF supporter who was shot in the hand during conflict between AZAPO and UDF supporters in Zwide, Port Elizabeth, on 12 May 1985.",
        "coordinates": [
            25.570066,
            -33.917988
        ],
        "date": "Date: 1985-05-12"
    },
    {
        "name": "Khobone Vernon APOLOSI",
        "place": "Krugersdorp",
        "description": "An ANC supporter who was shot and injured by IFP-supporting hostel-dwellers in Swanieville, near Krugersdorp, Transvaal, on 12 May 1991. About one hundred and fifteen shacks were set alight, twenty seven people killed and twenty five vehicles burnt in retaliation for the expulsion of IFP supporters from the area. Twelve people were charged with crimes ranging from murder to arson, but were later acquitted due to lack of evidence.",
        "coordinates": [
            27.775556,
            -26.09556
        ],
        "date": "Date: 1991-05-12"
    },
    {
        "name": "David Pieter APPIES",
        "place": "Carnarvon",
        "description": "A UDF supporter and SRC representative who was beaten and tortured during his three-month detention under emergency regulations in Carnarvon, Cape, from July 1986. He was later charged with arson and sentenced to a suspended prison term. See police brutality.",
        "coordinates": [
            22.133026,
            -30.968266
        ],
        "date": "Date: 1986-07-01"
    },
    {
        "name": "Wandile Christopher APPOLIS",
        "place": "Addo",
        "description": "A UDF activist who lost both his eyes after being shot by a named off-duty SAP member in Addo, Cape, on 13 April 1985, while he was publicising a meeting. Upon his discharge from hospital, Mr Appolis was detained in North End Prison, Port Elizabeth.",
        "coordinates": [
            25.696665,
            -33.552638
        ],
        "date": "Date: 1985-04-13"
    },
    {
        "name": "Simphiwe APPOLS",
        "place": "Stutterheim",
        "description": "An ANC supporter who was severely beaten and tortured by CDF and Peace Force members in Stutterheim, Cape, on 7 September 1992.",
        "coordinates": [
            27.423961,
            -32.57076
        ],
        "date": "Date: 1992-09-07"
    },
    {
        "name": "Cecil Patrick APRIL",
        "place": "Carletonville",
        "description": "Was tortured repeatedly by members of the SAP at Carletonville police station, on 24 November 1985, during a rent boycott in Khutsong, Carletonville, Transvaal.",
        "coordinates": [
            27.397673,
            -26.360943
        ],
        "date": "Date: 1985-11-24"
    },
    {
        "name": "Doreen APRIL",
        "place": "Nelspruit",
        "description": "Was shot and injured by members of the SADF on 15 June 1986 in Nelspruit, Transvaal, during a night vigil held to commemorate the 1976 Soweto uprising.",
        "coordinates": [
            30.970333,
            -25.474482
        ],
        "date": "Date: 1986-06-15"
    },
    {
        "name": "Gibson Mxolisi APRIL",
        "place": "Benoni",
        "description": "An ANC supporter who was shot dead by a member of the SAP in Daveyton, Benoni, Transvaal, on 13 April 1986.",
        "coordinates": [
            28.311338,
            -26.190851
        ],
        "date": "Date: 1986-04-13"
    },
    {
        "name": "Lindile APRIL",
        "place": "Adelaide",
        "description": "Died after being assaulted with a rock by named members of the SAP in Lingelethu, Adelaide, Cape, on 16 April 1986. One of the perpetrators was found guilty of the killing.",
        "coordinates": [
            26.295638,
            -32.707468
        ],
        "date": "Date: 1986-04-16"
    },
    {
        "name": "Lungephi Cecil APRIL",
        "place": "Addo",
        "description": "A COSAS supporter who was repeatedly tortured and held in solitary confinement for two months from 5 April 1986 at Addo police station, Cape.",
        "coordinates": [
            25.696665,
            -33.552638
        ],
        "date": "Date: 1986-04-05"
    },
    {
        "name": "Ngubeni Stanley APRIL",
        "place": "Willowvale",
        "description": "A PAC supporter who was tortured by members of the SAP in Willowvale, Transkei, in April 1963, during the state of emergency. See police brutality.",
        "coordinates": [
            26.816667,
            -30.716667
        ],
        "date": "Date: 1963-04-01"
    },
    {
        "name": "Ntsundu APRIL",
        "place": "Willowvale",
        "description": "A PAC supporter who was kicked, clubbed with guns and spat upon throughout an entire night by members of the SAP when he was detained at Willowvale, Transkei, in 1963.",
        "coordinates": [
            26.816667,
            -30.716667
        ],
        "date": "Date: Unknown"
    },
    {
        "name": "Joseph Angelo ARANES",
        "place": "Bonteheuwel",
        "description": "A UDF supporter in Bonteheuwel, Cape Town who was detained in June 1986 and held under emergency regulations for several months at Victor Verster prison, Paarl. Thereafter he experienced continuous police harassment and several arrests. See police brutality.",
        "coordinates": [
            18.554446,
            -33.950161
        ],
        "date": "Date: 1986-06-01"
    },
    {
        "name": "John Jacobus ARENDS",
        "place": "Uitenhage",
        "description": "An ANC supporter who was arrested and severely beaten by a member of the SAP at Uitenhage, Cape, in 1991.",
        "coordinates": [
            25.3961302,
            -33.76743
        ],
        "date": "Date: Unknown"
    },
    {
        "name": "Aubrey Cecil ARENDSE",
        "place": "Cape Town",
        "description": "A school student who was detained during a protest march in Woodstock, Cape Town, on 3 September 1976. He was severely beaten and detained for almost a year without trial. On 10 November 1985 he was shot and injured by police during unrest in Mitchells Plain, Cape.",
        "coordinates": [
            18.417396,
            -33.92899
        ],
        "date": "Date: 1976-09-03"
    },
    {
        "name": "Aubrey Cecil ARENDSE",
        "place": "Cape Town",
        "description": "A school student who was detained during a protest march in Woodstock, Cape Town, on 3 September 1976. He was severely beaten and detained for almost a year without trial. On 10 November 1985 he was shot and injured by police during unrest in Mitchells Plain, Cape.",
        "coordinates": [
            18.417396,
            -33.92899
        ],
        "date": "Date: 1985-11-10"
    },
    {
        "name": "David ARNOLD",
        "place": "Durban",
        "description": "Was injured in what became known as the Magoo\u2019s Bar Booming in Durban on 14 June 1986. The explosion killed three women and injured at least seventy four other people. Seven MK operatives were granted amnesty (AC/2001/128).",
        "coordinates": [
            31.009909,
            -29.86183
        ],
        "date": "Date: 1986-06-14"
    },
    {
        "name": "Mina ARRIES",
        "place": "Cradock",
        "description": "Was in her home in Cradock, Cape, when it was stoned and petrol bombed by unidentified youths in 1985. The attack is believed to have taken place because her son was a policeman.",
        "coordinates": [
            25.619176,
            -32.164221
        ],
        "date": "Date: Unknown"
    },
    {
        "name": "Zinakile Charles ASIYA",
        "place": "Colesberg",
        "description": "A UDF supporter who was severely beaten by members of the SAP at Colesberg police station, Cape, in August 1986, and again in 1988, because of his alleged involvement in the campaign against the municipal elections.",
        "coordinates": [
            25.096667,
            -30.72111
        ],
        "date": "Date: 1986-08-01"
    },
    {
        "name": "Roockea ASMAN",
        "place": "Sonkombo",
        "description": "An ANC supporter who had her house burnt down on 20 March 1994 in Sonkombo, Ndwedwe, KwaZulu, near Durban, in intense political conflict in the area. See Sonkombo arson attacks.",
        "coordinates": [
            31.009909,
            -29.86183
        ],
        "date": "Date: 1994-03-20"
    },
    {
        "name": "Abu-Baker ASVAT",
        "place": "Johannesburg",
        "description": "Was shot dead by two men at his surgery in Rockville, Soweto, Johannesburg, on 27 January 1989. Dr Asvat was allegedly killed because he had knowledge about numerous assaults that took place at Ms Winnie Madikizela-Mandela\u2019s home in Orlando West, Soweto, including the death of youth activist, Stompie Seipei.",
        "coordinates": [
            28.049815,
            -26.205171
        ],
        "date": "Date: 1989-01-27"
    },
    {
        "name": "Gary ATKINSON",
        "place": "Cape Town",
        "description": "Co-owner and manager of the Heidelberg Tavern situated in Observatory, Cape Town, who suffered damages when APLA operatives attacked the tavern with a rocket launcher and automatic weapons on 30 December 1993. Four people were killed and seven were injured during the course of the attack. Three perpetrators were granted amnesty (AC/1998/0026). See APLA attacks.",
        "coordinates": [
            18.417396,
            -33.92899
        ],
        "date": "Date: 1993-12-30"
    },
    {
        "name": "Myekeni Given ATSHOSE",
        "place": "Kanana",
        "description": "Was beaten and shot by members of the SAP at a bus stop in Kanana, Orkney, Transvaal, during a strike on 16 March 1986.",
        "coordinates": [
            26.629856,
            -26.963896
        ],
        "date": "Date: 1986-03-16"
    },
    {
        "name": "Mashego AUBREY",
        "place": "KwaGuqa",
        "description": "Was at home in KwaGuqa, Witbank, Transvaal, when it was bombed by a member of the SAP in March 1986. The incident took place during a period of heightened political conflict which soon led to the imposition of a state of emergency.",
        "coordinates": [
            29.11634,
            -25.86086
        ],
        "date": "Date: 1986-03-01"
    },
    {
        "name": "Felisizwe Lucky AUGUST",
        "place": "Fort Beaufort",
        "description": "A youth congress activist and ANC supporter who was severely beaten by members of the SAP at a school in Fort Beaufort, Cape, during the 1980s school boycotts. He was subsequently arrested and detained on numerous occasions during the 1980s, and subjected to severe torture by named SAP members. He was imprisoned and released in 1992, after which he was severely assaulted during violent conflict between ANC and PAC supporters in Fort Beaufort, Cape.",
        "coordinates": [
            26.5823368,
            -32.768803
        ],
        "date": "Date: Unknown"
    },
    {
        "name": "Sipho AUGUST",
        "place": "Robertson",
        "description": "An ANC supporter who was beaten by police upon his arrest with more than seventy other youths in Robertson, Cape, on 20 November 1985. Mr August was again beaten by police on 18 June 1986 and thereafter detained for three months under emergency regulations. See police brutality.",
        "coordinates": [
            19.883611,
            -33.80222
        ],
        "date": "Date: 1985-11-20"
    },
    {
        "name": "Sipho AUGUST",
        "place": "Robertson",
        "description": "An ANC supporter who was beaten by police upon his arrest with more than seventy other youths in Robertson, Cape, on 20 November 1985. Mr August was again beaten by police on 18 June 1986 and thereafter detained for three months under emergency regulations. See police brutality.",
        "coordinates": [
            19.883611,
            -33.80222
        ],
        "date": "Date: 1986-06-18"
    },
    {
        "name": "Thobeka Joyce AUGUST",
        "place": "Fort Beaufort",
        "description": "An ANC supporter who had her home destroyed in an arson attack by PAC supporters during political conflict at Fort Beaufort, Cape, on 24 February 1993.",
        "coordinates": [
            26.5823368,
            -32.768803
        ],
        "date": "Date: 1993-02-24"
    },
    {
        "name": "Thobile Morgan AUGUST",
        "place": "Paarl",
        "description": "Was arrested and beaten with sjamboks and batons by SAP members near Worcester, Cape, on 18 June 1986. He was then detained for three months in Victor Verster prison, Paarl, Cape, under emergency regulations. See police brutality.",
        "coordinates": [
            18.975228,
            -33.733781
        ],
        "date": "Date: 1986-06-18"
    },
    {
        "name": "Joriena Susana AUGUSTYN",
        "place": "Krugersdorp",
        "description": "Was severely injured when members of MK\u2019s \u2018Dolphin unit\u2019 detonated an explosive in a car near the Krugersdorp Magistrate\u2019s court and the adjacent police station, Transvaal, on 16 March 1988. Three people were killed and more than twenty were injured in the blast. Two MK operatives were granted amnesty (AC/2001/003).",
        "coordinates": [
            27.775556,
            -26.09556
        ],
        "date": "Date: 1988-03-16"
    },
    {
        "name": "Pieter AUGUSTYN",
        "place": "Fort Beaufort",
        "description": "Suffered severe trauma when APLA operatives, armed with automatic weapons and hand grenades, stormed the Yellowwoods Hotel, in Fort Beaufort, Cape, on 23 March 1993, and opened fire on staff and patrons. One person was shot dead in the attack. Three perpetrators were granted amnesty (AC/2000/225). See APLA attacks.",
        "coordinates": [
            26.5823368,
            -32.768803
        ],
        "date": "Date: 1993-03-23"
    },
    {
        "name": "Sekano AVONLY-KGASI",
        "place": "Johannesburg",
        "description": "Was interrogated, tortured and killed by AZAPO members along with five other scholars in Soweto, Johannesburg, on 1 August 1986. The incident was sparked off by the burning of the house of an AZAPO leader for which the youths were believed to have been responsible. Three perpetrators were refused amnesty, and one was granted amnesty (AC/2000/179 and AC/1999/230).",
        "coordinates": [
            28.049815,
            -26.205171
        ],
        "date": "Date: 1986-08-01"
    },
    {
        "name": "Haroon Erasheed AZIZ",
        "place": "Durban",
        "description": "An ANC supporter who was detained in 1974 under Section 6 of the Terrorism Act. He was severely tortured by named Security Branch members at the Greenwood Park and Fischer Street police stations in Durban. During interrogations he was kicked until he was unconscious.",
        "coordinates": [
            31.009909,
            -29.86183
        ],
        "date": "Date: Unknown"
    },
    {
        "name": "Amos BAARD",
        "place": "Kimberley",
        "description": "Was injured in a hand grenade explosion in Kimberley, Cape, on 25 May 1993, during an ANC protest march to the Bophuthatswana consulate. Two MK operatives threw a hand grenade at the building, but it bounced back into the crowd, killing one person and injuring forty one others. Two ANC members were wrongly convicted of the killing. Four MK and ANC members, two of whom denied guilt, applied for amnesty, which was refused (AC/2000/053 and AC/2000/241).",
        "coordinates": [
            24.762315,
            -28.732262
        ],
        "date": "Date: 1993-05-25"
    },
    {
        "name": "Frances Goitsimang BAARD",
        "place": "East London",
        "description": "An ANC member and trade union organiser who was detained and tortured by members of the SAP in East London during 1963. She was held in solitary confinement for a year in North End prison, Port Elizabeth, and then sentenced to five years\u2019 imprisonment, which she served in Kroonstad prison. On her release in 1969 she was banished to Mabopane, near Pretoria.",
        "coordinates": [
            27.8998573,
            -33.01916
        ],
        "date": "Date: Unknown"
    },
    {
        "name": "Tusetso Henry BAARDMAN",
        "place": "Burgersdorp",
        "description": "Was arrested in Molteno, Cape, in February 1965 and severely tortured by named members of the SAP at the police station in Burgersdorp, Cape. He was then imprisoned on Robben Island, Cape Town, for twelve years.",
        "coordinates": [
            26.32862,
            -30.9977
        ],
        "date": "Date: 1965-02-01"
    },
    {
        "name": "Watu June Audrey BAARTMAN (PEZISA)",
        "place": "Nyanga",
        "description": "Her home was petrol bombed in Nyanga, Cape, on 9 November 1977, in the violent aftermath of the Soweto uprising. Her infant daughter was killed and her son seriously injured in the attack.",
        "coordinates": [
            18.5847222,
            -33.98694
        ],
        "date": "Date: 1977-11-09"
    },
    {
        "name": "Ben Kopi BAARTMAN",
        "place": "Worcester",
        "description": "An ANC member from Worcester, Cape, who was banished to Zululand in 1959. He fled to Swaziland in 1961. He was deported to Tanzania in 1984 when the Swaziland government banned the ANC from operating on Swazi territory.",
        "coordinates": [
            19.448523,
            -33.64651
        ],
        "date": "Date: Unknown"
    },
    {
        "name": "Mzwandile John BILL",
        "place": "Cradock",
        "description": "Was shot dead by members of the SAP during protests in Cradock, Cape, on 14 August 1987.",
        "coordinates": [
            25.619176,
            -32.164221
        ],
        "date": "Date: 1987-08-14"
    },
    {
        "name": "Tembinkosi Harold BILLIE",
        "place": "Bisho",
        "description": "An ANC supporter who was shot dead by members of the CDF in Bisho, Ciskei, on 7 September 1992 during an ANC protest march to demand free political activity in Ciskei. Thirty people were killed and 200 people injured in what became known as the Bisho massacre. Two members of the former CDF were refused amnesty for the shooting (AC/2000/122).",
        "coordinates": [
            27.4558351,
            -32.839329
        ],
        "date": "Date: 1992-09-07"
    },
    {
        "name": "Jan BIMBI",
        "place": "Soshanguve",
        "description": "Was detained in Soshanguve, Transvaal, in October 1986 and later received a prison sentence for burning a police member\u2019s home.",
        "coordinates": [
            28.099189,
            -25.472878
        ],
        "date": "Date: 1986-10-01"
    },
    {
        "name": "Celete BINALA",
        "place": "Fort Beaufort",
        "description": "Suffered severe trauma when APLA operatives, armed with automatic weapons and hand grenades, stormed the Yellowwoods hotel, in Fort Beaufort, Cape, on 23 March 1993, and opened fire on staff and patrons. One person was shot dead in the attack. Three perpetrators were granted amnesty (AC/2000/225). See APLA attacks. ",
        "coordinates": [
            26.5823368,
            -32.768803
        ],
        "date": "Date: 1993-03-23"
    },
    {
        "name": "Mervin David BINDER",
        "place": "Krugersdorp",
        "description": "Was killed by ANCYL members on 22 or 23 November 1991 during political conflict in Krugersdorp, Transvaal. The ANCYL members abducted Mr Binder while he was transporting weapons to IFP-supporting hostel-dwellers in Kagiso to be used in an attack on ANC supporters in nearby Swanieville. One perpetrator was granted amnesty for the incident (AC/1999/0295).",
        "coordinates": [
            27.775556,
            -26.09556
        ],
        "date": "Date: 1991-11-23"
    },
    {
        "name": "John BINGWA",
        "place": "Kroonstad",
        "description": "A PAC supporter who was detained and assaulted by SAP members in Sterkstroom police station, Cape, and Kroonstad prison, Orange Free State, in April 1963, because he was allegedly believed to be involved in political activities at school. Mr Bingwa, and other scholars, were charged and sentenced on 26 June 1963. He served his sentence and was released in 1965.",
        "coordinates": [
            27.234879,
            -27.65036
        ],
        "date": "Date: 1963-04-01"
    },
    {
        "name": "John BINGWA",
        "place": "Kroonstad",
        "description": "A PAC supporter who was detained and assaulted by SAP members in Sterkstroom police station, Cape, and Kroonstad prison, Orange Free State, in April 1963, because he was allegedly believed to be involved in political activities at school. Mr Bingwa, and other scholars, were charged and sentenced on 26 June 1963. He served his sentence and was released in 1965.",
        "coordinates": [
            27.234879,
            -27.65036
        ],
        "date": "Date: 1963-06-26"
    },
    {
        "name": "Mfenana BINTA",
        "place": "Cape Town",
        "description": "A PAC supporter who was convicted of sabotage during the 1960 protests in Cape Town and sentenced to seven years\u2019 imprisonment on Robben Island, Cape Town.",
        "coordinates": [
            18.417396,
            -33.92899
        ],
        "date": "Date: Unknown"
    },
    {
        "name": "Mthetheleli BISETI",
        "place": "Dimbaza",
        "description": "Was tortured in police custody on 16 June 1985 in Dimbaza, Ciskei.",
        "coordinates": [
            27.2148573,
            -32.852965
        ],
        "date": "Date: 1985-06-16"
    },
    {
        "name": "Masayidi Xhaghalegusha BISIWE",
        "place": "Baziya",
        "description": "An ANC supporter who lost three rondavels when they were set alight and bulldozed by members of the Transkei Defence Force at Baziya, near Umtata, Transkei, on 14 December 1980.",
        "coordinates": [
            28.418368,
            -31.613168
        ],
        "date": "Date: 1980-12-14"
    },
    {
        "name": "Nohlanhla Mina BITAMKHONO",
        "place": "Murchison",
        "description": "An ANC supporter who was injured while escaping from an armed attack on a home in KwaSithole, Murchison, near Port Shepstone, Natal, on 5 April 1993 in continuing political conflict between ANC and IFP supporters in the area. Ten ANC supporters were killed and two injured in the attack.",
        "coordinates": [
            30.35735,
            -30.72471
        ],
        "date": "Date: 1993-04-05"
    },
    {
        "name": "Priscilla Nomakhaya BITTERHOUT",
        "place": "Jansenville",
        "description": "Was tortured by a named member of the SAP while in detention at Jansenville prison, Cape, during the state of emergency in April 1985. See police brutality.",
        "coordinates": [
            24.670833,
            -32.94333
        ],
        "date": "Date: 1985-04-01"
    },
    {
        "name": "Vuyisile Antony BIXA",
        "place": "Thabazimbi",
        "description": "An MK member who was shot dead by members of the SADF in Thabazimbi, Transvaal, in April 1988.",
        "coordinates": [
            27.411551,
            -24.59165
        ],
        "date": "Date: 1988-04-01"
    },
    {
        "name": "Michael Joy BIYASE",
        "place": "Mtwalume",
        "description": "An IFP supporter who was abducted and shot dead by a named member of the SADF on 14 April 1994 at Mtwalume, near Umzinto, Natal.",
        "coordinates": [
            30.6308333,
            -30.49222
        ],
        "date": "Date: 1994-04-14"
    },
    {
        "name": "Qondeni Morencia BIYASE",
        "place": "Hopewell",
        "description": "Had her home burnt down on 20 April 1992 in Hopewell, Ixopo, Natal, in ongoing political conflict between ANC and IFP supporters in the area.",
        "coordinates": [
            30.3831,
            -29.76762
        ],
        "date": "Date: 1992-04-20"
    },
    {
        "name": "Sandile Gandaye BIYASE",
        "place": "Imbali",
        "description": "A UDF supporter who was on his way home from a peace meeting on 27 August 1989 in Imbali, Pietermaritzburg, when he and his companions were attacked by a named Inkatha supporter. Mr Biyase and another UDF supporter were shot dead, while a third UDF supporter was injured.",
        "coordinates": [
            30.3472222,
            -29.65889
        ],
        "date": "Date: 1989-08-27"
    },
    {
        "name": "Wando BIYASE",
        "place": "Imbali",
        "description": "An ANC supporter who was shot dead in Imbali, Pietermaritzburg, on 1 December 1992 by the same named IFP supporter who had killed his brother in 1989.",
        "coordinates": [
            30.3472222,
            -29.65889
        ],
        "date": "Date: 1992-12-01"
    },
    {
        "name": "Abednigo Themba BIYELA",
        "place": "Enseleni",
        "description": "Died after being stabbed and shot while attending an IFP rally on 20 February 1994 at Enseleni, KwaZulu, near Empangeni, Natal.",
        "coordinates": [
            31.893293,
            -28.761974
        ],
        "date": "Date: 1994-02-20"
    },
    {
        "name": "Alleta Sthembile BIYELA",
        "place": "Empangeni",
        "description": "Was shot dead by IFP supporters on 14 October 1992 at Empangeni, Natal, during political conflict in the area. Ms Biyela\u2019s father, a prominent ANC member, was also killed in the attack.",
        "coordinates": [
            31.893293,
            -28.761974
        ],
        "date": "Date: 1992-10-14"
    },
    {
        "name": "Bahlangene BIYELA",
        "place": "KwaKhoza",
        "description": "Had his house destroyed in an arson attack at KwaKhoza, KwaZulu, near Eshowe, Natal, during 1993, in political conflict between IFP and ANC supporters in the area.",
        "coordinates": [
            31.464842,
            -28.89158
        ],
        "date": "Date: Unknown"
    },
    {
        "name": "Bazibile Mildred BIYELA",
        "place": "Zindophe",
        "description": "Had her livestock and possessions stolen during political conflict between ANC and IFP supporters in Zindophe, KwaZulu, near Eshowe, Natal, during March 1994. Her house was then destroyed.",
        "coordinates": [
            31.464842,
            -28.89158
        ],
        "date": "Date: 1994-03-01"
    },
    {
        "name": "Bonisiwe Bongekile BIYELA",
        "place": "Mkhukhuze",
        "description": "Had her home destroyed in an arson attack at Mkhukhuze, KwaZulu, near Eshowe, Natal, in September 1993, in political conflict between IFP and ANC supporters in the area.",
        "coordinates": [
            31.464842,
            -28.89158
        ],
        "date": "Date: 1993-09-01"
    },
    {
        "name": "Charlie BIYELA",
        "place": "Durban",
        "description": "An ANC supporter who was shot dead in Inanda, near KwaMashu, Durban, on 13 June 1993, in political conflict in the area.",
        "coordinates": [
            31.009909,
            -29.86183
        ],
        "date": "Date: 1993-06-13"
    },
    {
        "name": "David BIYELA",
        "place": "Biyela",
        "description": "An ANC supporter who was left disabled after being shot and stabbed by IFP supporters near Empangeni, Natal, on 10 May 1994, the day of Nelson Mandela\u2019s inauguration as President. The perpetrators stopped their car to attack Mr Biyela, apparently in a case of mistaken identity.",
        "coordinates": [
            31.55,
            -28.483333
        ],
        "date": "Date: 1994-05-10"
    },
    {
        "name": "Elizabeth BIYELA",
        "place": "Richards Bay",
        "description": "Had her house burnt down by IFP supporters at Bukhanana, KwaMbonambi, near Richards Bay, Natal, on January 1994 after being accused of defecting to the ANC.",
        "coordinates": [
            32.0577775,
            -28.77079
        ],
        "date": "Date: 1994-01-01"
    },
    {
        "name": "Ethel BIYELA",
        "place": "Tokoza",
        "description": "Was shot and severely injured, allegedly by Khumalo gang members at a shebeen in Tokoza, Transvaal, on 13 December 1992. One other person was killed and another severely injured in this attack. Ms Biyela was paralysed as a result of the shooting, reportedly in retaliation for the shooting earlier in the day at the shebeen of a Khumalo gang member, allegedly involved in rape and murder.",
        "coordinates": [
            28.066667,
            -26.366667
        ],
        "date": "Date: 1992-12-13"
    },
    {
        "name": "Ivy Thandi BIYELA",
        "place": "Sundumbili",
        "description": "An ANC supporter who lost her home in an arson attack at Sundumbili, KwaZulu, near Mandini, Natal, on 23 March 1994, in political conflict between ANC and IFP supporters during the run-up to the April 1994 elections.",
        "coordinates": [
            31.4103067,
            -29.15291
        ],
        "date": "Date: 1994-03-23"
    },
    {
        "name": "Ivy Thandi BIYELA",
        "place": "Sundumbili",
        "description": "An ANC supporter who lost her home in an arson attack at Sundumbili, KwaZulu, near Mandini, Natal, on 23 March 1994, in political conflict between ANC and IFP supporters during the run-up to the April 1994 elections.",
        "coordinates": [
            31.4103067,
            -29.15291
        ],
        "date": "Date: 1994-04-01"
    },
    {
        "name": "John Qondeni BIYELA",
        "place": "Johannesburg",
        "description": "Was shot and wounded when ANC security guards opened fire from the ANC headquarters at Shell House, Johannesburg, on a crowd of IFP marchers, on 28 March 1994. At least nine marchers were killed and around 100 injured. Ten ANC security guards were granted amnesty (AC/2000/142).",
        "coordinates": [
            28.049815,
            -26.205171
        ],
        "date": "Date: 1994-03-28"
    },
    {
        "name": "Joyce Theku BIYELA",
        "place": "Durban",
        "description": "Had her house destroyed in an arson attack by Inkatha supporters in Ntuzuma, near Durban, on 13 September 1988, in political conflict in the area.",
        "coordinates": [
            31.009909,
            -29.86183
        ],
        "date": "Date: 1988-09-13"
    },
    {
        "name": "Lindiwe Cynthia BIYELA",
        "place": "Richmond",
        "description": "Had her home burnt down on 28 October 1992 in Ndaleni, Richmond, Natal, in ongoing political conflict between ANC and IFP supporters in the area.",
        "coordinates": [
            30.93333,
            -29.75
        ],
        "date": "Date: 1992-10-28"
    },
    {
        "name": "Lucy BIYELA",
        "place": "Sonkombo",
        "description": "An ANC supporter who had her home burnt down by IFP supporters on 16 March 1994 in Sonkombo, Ndwedwe, KwaZulu, near Durban, in intense political conflict in the area. See Sonkombo arson attacks.",
        "coordinates": [
            31.009909,
            -29.86183
        ],
        "date": "Date: 1994-03-16"
    },
    {
        "name": "Mandla Lawrence BIYELA",
        "place": "Tokoza",
        "description": "Was shot dead in Mshayazafe hostel, Tokoza, Transvaal, on 21 March 1992, allegedly by IFP supporters who suspected him of spying for Phola Park residents. This incident occurred during political conflict between hostel-dwellers and residents.",
        "coordinates": [
            28.066667,
            -26.366667
        ],
        "date": "Date: 1992-03-21"
    },
    {
        "name": "Mbongeni Bethuel BIYELA",
        "place": "Empangeni",
        "description": "An ANC supporter who was shot and injured and lost his home in an arson attack by IFP supporters at Empangeni, Natal, on 14 October 1992. Mr Biyela\u2019s daughter was killed in the attack.",
        "coordinates": [
            31.893293,
            -28.761974
        ],
        "date": "Date: 1992-10-14"
    },
    {
        "name": "Mildred BIYELA",
        "place": "Eshowe",
        "description": "Had her house destroyed in an arson attack in Eshowe, Natal, during February 1994, in political conflict between ANC and IFP supporters in the area.",
        "coordinates": [
            31.464842,
            -28.89158
        ],
        "date": "Date: 1994-02-01"
    },
    {
        "name": "Mohlo BIYELA",
        "place": "Zindophe",
        "description": "An ANC supporter who had his house set alight by IFP supporters at Zindophe, KwaZulu, near Eshowe, Natal, in March 1994. Several homes belonging to ANC members were burnt down in the attack.",
        "coordinates": [
            31.464842,
            -28.89158
        ],
        "date": "Date: 1994-03-01"
    },
    {
        "name": "Moses Mjabuliseni BIYELA",
        "place": "Empangeni",
        "description": "Was arrested at school for distributing pamphlets, and taken to the Empangeni police station, Natal, on 14 June 1989. He was detained for one month, during which time he was severely tortured and kept in solitary confinement.",
        "coordinates": [
            31.893293,
            -28.761974
        ],
        "date": "Date: 1989-06-14"
    },
    {
        "name": "Msebenziwomhle Caiphas BIYELA",
        "place": "Empangeni",
        "description": "Had his home destroyed in an arson attack at Empangeni, Natal, on 17 January 1994, in political conflict between ANC and IFP supporters in the area.",
        "coordinates": [
            31.893293,
            -28.761974
        ],
        "date": "Date: 1994-01-17"
    },
    {
        "name": "Mshayela Simon BIYELA",
        "place": "Eshowe",
        "description": "Had his home destroyed in an arson attack at Eshowe, Natal, during March 1994, in political conflict between ANC and IFP supporters during the run-up to the first democratic election of April 1994.",
        "coordinates": [
            31.464842,
            -28.89158
        ],
        "date": "Date: 1994-03-01"
    },
    {
        "name": "Mshayela Simon BIYELA",
        "place": "Eshowe",
        "description": "Had his home destroyed in an arson attack at Eshowe, Natal, during March 1994, in political conflict between ANC and IFP supporters during the run-up to the first democratic election of April 1994.",
        "coordinates": [
            31.464842,
            -28.89158
        ],
        "date": "Date: 1994-04-01"
    },
    {
        "name": "Musawenkosi BIYELA",
        "place": "Gezinsila",
        "description": "Was severely beaten by unidentified persons at Gezinsila, KwaZulu, near Eshowe, Natal, on 3 December 1993, during political conflict between IFP and ANC supporters in the area. His brother was also beaten in the attack.",
        "coordinates": [
            31.464842,
            -28.89158
        ],
        "date": "Date: 1993-12-03"
    },
    {
        "name": "Mzikayise BIYELA",
        "place": "Empangeni",
        "description": "Lost his house and livestock in an arson attack by IFP supporters in Empangeni, Natal, on 15 January 1994, in ongoing political conflict in the area.",
        "coordinates": [
            31.893293,
            -28.761974
        ],
        "date": "Date: 1994-01-15"
    },
    {
        "name": "Nompumelelo Zodwa BIYELA",
        "place": "Zindophe",
        "description": "Lost her home in an arson attack at Zindophe, KwaZulu, near Eshowe, Natal, on 18 March 1994 in political conflict between ANC and IFP supporters during the run-up to the April 1994 elections.",
        "coordinates": [
            31.464842,
            -28.89158
        ],
        "date": "Date: 1994-03-18"
    },
    {
        "name": "Nompumelelo Zodwa BIYELA",
        "place": "Zindophe",
        "description": "Lost her home in an arson attack at Zindophe, KwaZulu, near Eshowe, Natal, on 18 March 1994 in political conflict between ANC and IFP supporters during the run-up to the April 1994 elections.",
        "coordinates": [
            31.464842,
            -28.89158
        ],
        "date": "Date: 1994-04-01"
    },
    {
        "name": "Phiwawubani Eunice BIYELA",
        "place": "Mpumalanga",
        "description": "An IFP supporter who had her house petrol-bombed by unidentified persons at Mpumalanga, KwaZulu, near Durban, during 1991, in ongoing political conflict in the area.",
        "coordinates": [
            31.009909,
            -29.86183
        ],
        "date": "Date: Unknown"
    },
    {
        "name": "Phuleni BIYELA",
        "place": "Empangeni",
        "description": "She had her home destroyed in an arson attack by prominent IFP supporters at Empangeni, Natal, on 14 January 1993. Ms Biyela\u2019s nephew was an ANC supporter.",
        "coordinates": [
            31.893293,
            -28.761974
        ],
        "date": "Date: 1993-01-14"
    },
    {
        "name": "Preety BIYELA",
        "place": "Mhlathuze",
        "description": "Was shot and injured in an attack on her home at Mhlathuze, KwaZulu, near Eshowe, Natal, on 13 April 1994, during political conflict in the area between ANC and IFP supporters in the run up to the April 1994 elections.",
        "coordinates": [
            31.464842,
            -28.89158
        ],
        "date": "Date: 1994-04-13"
    },
    {
        "name": "Preety BIYELA",
        "place": "Mhlathuze",
        "description": "Was shot and injured in an attack on her home at Mhlathuze, KwaZulu, near Eshowe, Natal, on 13 April 1994, during political conflict in the area between ANC and IFP supporters in the run up to the April 1994 elections.",
        "coordinates": [
            31.464842,
            -28.89158
        ],
        "date": "Date: 1994-04-01"
    },
    {
        "name": "Prudence BIYELA",
        "place": "Empangeni",
        "description": "Died after being raped, stabbed and shot by IFP supporters on 21 March 1993 at the Kwa-Magobotiyana stream, near Empangeni, Natal. Her male companion was also killed in the attack, which was allegedly in retaliation for the killing of another IFP supporter.",
        "coordinates": [
            31.893293,
            -28.761974
        ],
        "date": "Date: 1993-03-21"
    },
    {
        "name": "Qondeni BIYELA",
        "place": "Zindophe",
        "description": "Had her home destroyed in an arson attack at Zindophe, KwaZulu, near Eshowe, Natal, during 1994, in continuing political conflict between ANC and IFP supporters in the area.",
        "coordinates": [
            31.464842,
            -28.89158
        ],
        "date": "Date: Unknown"
    },
    {
        "name": "Rejoice Thandekile BIYELA",
        "place": "KwaMthethwa",
        "description": "An IFP supporter who had her house burnt down at KwaMthethwa, KwaZulu, near Empangeni, Natal, on 18 February 1994 in political conflict between ANC and IFP supporters in the area during the run-up to the April 1994 elections.",
        "coordinates": [
            31.893293,
            -28.761974
        ],
        "date": "Date: 1994-02-18"
    },
    {
        "name": "Rejoice Thandekile BIYELA",
        "place": "KwaMthethwa",
        "description": "An IFP supporter who had her house burnt down at KwaMthethwa, KwaZulu, near Empangeni, Natal, on 18 February 1994 in political conflict between ANC and IFP supporters in the area during the run-up to the April 1994 elections.",
        "coordinates": [
            31.893293,
            -28.761974
        ],
        "date": "Date: 1994-04-01"
    },
    {
        "name": "Richard Zitha BIYELA",
        "place": "Port Shepstone",
        "description": "An ANC supporter who was shot dead by a named perpetrator in Port Shepstone, Natal, on 3 November 1993, during continuing political conflict in the area.",
        "coordinates": [
            30.4297304,
            -30.752126
        ],
        "date": "Date: 1993-11-03"
    },
    {
        "name": "Ruth Bongiwe BIYELA",
        "place": "Mhlathuze",
        "description": "Had her home destroyed in an arson attack at Mhlathuze, KwaZulu, near Eshowe, Natal, on 13 April 1994, in political conflict between ANC and IFP supporters during the run-up to the first democratic election on 27 April.",
        "coordinates": [
            31.464842,
            -28.89158
        ],
        "date": "Date: 1994-04-13"
    },
    {
        "name": "Sehlukene BIYELA",
        "place": "Durban",
        "description": "An Inkatha supporter who had his home destroyed in an arson attack by UDF supporters at Inanda, near KwaMashu, Durban, on 8 April 1989, in intensifying political conflict in the area.",
        "coordinates": [
            31.009909,
            -29.86183
        ],
        "date": "Date: 1989-04-08"
    },
    {
        "name": "Sibongile BIYELA",
        "place": "Durban",
        "description": "Had her house destroyed in an arson attack by IFP supporters in Inanda, near KwaMashu, Durban, in February 1993, in ongoing political conflict in the area.",
        "coordinates": [
            31.009909,
            -29.86183
        ],
        "date": "Date: 1993-02-01"
    },
    {
        "name": "Sibongile Zibuyisize BIYELA",
        "place": "Eshowe",
        "description": "Had her home destroyed in an arson attack at Eshowe, Natal, during 1993, in ongoing political conflict between IFP and ANC supporters in the area.",
        "coordinates": [
            31.464842,
            -28.89158
        ],
        "date": "Date: Unknown"
    },
    {
        "name": "Sizeni Sbongile BIYELA",
        "place": "Sonkombo",
        "description": "An ANC supporter who had her house burnt down by IFP supporters on 16 March 1994 at Sonkombo, Ndwedwe, KwaZulu, near Durban, in intense political conflict in the area. See Sonkombo arson attacks.",
        "coordinates": [
            31.009909,
            -29.86183
        ],
        "date": "Date: 1994-03-16"
    },
    {
        "name": "Thandabezizwe BIYELA",
        "place": "Eshowe",
        "description": "An ANC supporter who had his home destroyed in an arson attack by IFP supporters at Eshowe, Natal, in November 1993, in ongong political conflict in the area.",
        "coordinates": [
            31.464842,
            -28.89158
        ],
        "date": "Date: 1993-11-01"
    },
    {
        "name": "Themba Mandlakayise BIYELA",
        "place": "Durban",
        "description": "An Inkatha supporter who had his house destroyed in an arson attack by ANC supporters, some of whom are named, in Inanda, near KwaMashu, Durban, on 17 November 1989, in intensifying political conflict in the area.",
        "coordinates": [
            31.009909,
            -29.86183
        ],
        "date": "Date: 1989-11-17"
    },
    {
        "name": "Vusumuzi Mvana BIYELA",
        "place": "Gezinsila",
        "description": "Was severely beaten by unidentified persons at Gezinsila, KwaZulu, near Eshowe, Natal, on 3 December 1993, during political conflict between IFP and ANC supporters in the area. His brother was also beaten in the attack.",
        "coordinates": [
            31.464842,
            -28.89158
        ],
        "date": "Date: 1993-12-03"
    },
    {
        "name": "Toto BIZA",
        "place": "Maseru",
        "description": "Was shot dead on 9 December 1982 in an attack by SADF Special Forces operatives on several ANC houses and a block of flats on Maseru, Lesotho. Thirty South Africans and twelve citizens of Lesotho were killed in the midnight attack.",
        "coordinates": [
            27.50505,
            -29.34308
        ],
        "date": "Date: 1982-12-09"
    },
    {
        "name": "John BIZZELL",
        "place": "Hillbrow",
        "description": "An ANC supporter who was detained in July 1964 at the Fort prison, Hillbrow, Johannesburg. During his nine month term of imprisonment he was tortured by members of the SAP.",
        "coordinates": [
            28.0483333,
            -26.18806
        ],
        "date": "Date: 1964-07-01"
    },
    {
        "name": "Margeret Josephine BIZZELL",
        "place": "Hillbrow",
        "description": "Bizzell suffered a miscarriage after being pushed down the stairway at her home during a raid by members of the SAP in Hillbrow, Johannesburg, looking for her husband.",
        "coordinates": [
            28.0483333,
            -26.18806
        ],
        "date": "Date: Unknown"
    },
    {
        "name": "Andile Phillip BLAAUW",
        "place": "Despatch",
        "description": "A UDF supporter who was detained and tortured at the Church Street police station in Uitenhage, Cape, on 5 January 1987, and then moved to the Despatch police station, Cape, where he was allegedly injected with chemicals.",
        "coordinates": [
            25.462838,
            -33.801721
        ],
        "date": "Date: 1987-01-05"
    },
    {
        "name": "Buyile Gladstone BLAAUW",
        "place": "Langa",
        "description": "Was shot dead by members of the SAP in Langa, Uitenhage, Cape, on 21 March 1985 when police opened fire on mourners marching to a funeral. At least 20 people were killed and many injured in the shooting. See Langa shootings.",
        "coordinates": [
            18.53,
            -33.94556
        ],
        "date": "Date: 1985-03-21"
    },
    {
        "name": "Miriam BLAAUW",
        "place": "Paballelo",
        "description": "Was shot and severely injured by a member of the SAP at Paballelo, Upington, Cape, on 10 November 1985, while she was participating in a community protest march.",
        "coordinates": [
            21.2180556,
            -28.43917
        ],
        "date": "Date: 1985-11-10"
    },
    {
        "name": "Mzwandile Matthews BLAAUW",
        "place": "Uitenhage",
        "description": "A UDF supporter who was shot and injured by members of the security forces at KwaNobuhle, Uitenhage, Cape, in August 1980. The shooting occurred while he was attending a meeting during the 1980 school boycott.",
        "coordinates": [
            25.3961302,
            -33.76743
        ],
        "date": "Date: 1980-08-01"
    },
    {
        "name": "Nosipho Patricia BLAAUW",
        "place": "Langa",
        "description": "A UDF supporter who was shot and injured by members of the SAP in Langa, Uitenhage, Cape, on 21 March 1985 when police opened fire on mourners marching to a funeral. At least 20 people were killed and many injured in the shooting. See Langa shootings.",
        "coordinates": [
            18.53,
            -33.94556
        ],
        "date": "Date: 1985-03-21"
    },
    {
        "name": "J BLAIR",
        "place": "Durban",
        "description": "Was injured in what became known as the Magoo\u2019s Bar Bombing in Durban on 14 June 1986. The explosion killed three women and injured at least seventy four other people. Seven MK operatives were granted amnesty (AC/2001/128).",
        "coordinates": [
            31.009909,
            -29.86183
        ],
        "date": "Date: 1986-06-14"
    },
    {
        "name": "Michael BLAIR",
        "place": "Durban",
        "description": "Was injured in what became known as the Magoo\u2019s Bar Bombing in Durban on 14 June 1986. The explosion killed three women and injured at least seventy four other people. Seven MK operatives were granted amnesty (AC/2001/128).",
        "coordinates": [
            31.009909,
            -29.86183
        ],
        "date": "Date: 1986-06-14"
    },
    {
        "name": "Michael BLAKE",
        "place": "Pinetown",
        "description": "Was injured when an explosive device was detonated at a CNA news agent in Pinetown, Natal, on 7 October 1988. One MK operative was granted amnesty (AC/2000/159).",
        "coordinates": [
            30.884167,
            -29.81806
        ],
        "date": "Date: 1988-10-07"
    },
    {
        "name": "Stanko BLAKE",
        "place": "Jamestown",
        "description": "Was beaten to death while in police custody at Jamestown police station, Cape, in 1991.",
        "coordinates": [
            18.848876,
            -33.978976
        ],
        "date": "Date: Unknown"
    },
    {
        "name": "Welile Dindala BLAYI",
        "place": "Robben Island",
        "description": "A PAC supporter who was charged with sabotage in 1963 and imprisoned for 15 years on Robben Island, Cape Town, for his Poqo activities. On his release he was banished to the Transkei.",
        "coordinates": [
            18.417396,
            -33.92899
        ],
        "date": "Date: Unknown"
    },
    {
        "name": "Mntwabukho Oswel BLEKI",
        "place": "Mdantsane",
        "description": "A member of the Ciskei Police who was shot dead in a drive-by shooting while he was on duty at the Potsdam police station in Mdantsane, Ciskei, on 12 April 1993. The attack on the police station occurred during political conflict following the assassination of the SACP leader, Chris Hani.",
        "coordinates": [
            27.6708791,
            -32.958623
        ],
        "date": "Date: 1993-04-12"
    },
    {
        "name": "Raymond Mthetheleli BLESS",
        "place": "Bisho",
        "description": "An ANC supporter who was shot in the leg by members of the CDF in Bisho, Ciskei, on 7 September 1992 during an ANC protest march to demand free political activity in Ciskei. Thirty people were killed and two hundred people injured in the event which became known as the Bisho massacre. Two members of the former CDF were refused amnesty for the shooting (AC/2000/122).",
        "coordinates": [
            27.4558351,
            -32.839329
        ],
        "date": "Date: 1992-09-07"
    },
    {
        "name": "John BLOCK",
        "place": "Kimberley",
        "description": "Was injured in a hand grenade explosion on 25 May 1993 in Kimberley, Cape, during an ANC protest march to the Bophuthatswana consulate. Two MK operatives threw a hand grenade at the building which bounced back into the crowd, killing one person and injuring forty one others. Two ANC members were wrongly convicted of the killing. Four MK operatives and ANC members, two of whom denied guilt, were refused amnesty (AC/2000/053 and AC/2000/241).",
        "coordinates": [
            24.762315,
            -28.732262
        ],
        "date": "Date: 1993-05-25"
    },
    {
        "name": "Trevor BLOEM",
        "place": "Johannesburg",
        "description": "Was detained by members of the Security Branch in Johannesburg, in 1975 and charged under the Terrorism Act. Mr Bloem was active in the BCM and assisted in the formation of the \u2018Brotherhood \u2019, an organisation opposed to the state sponsored Coloured Representative Council.",
        "coordinates": [
            28.049815,
            -26.205171
        ],
        "date": "Date: Unknown"
    },
    {
        "name": "WJ BLOEM",
        "place": "Pretoria",
        "description": "Was injured when MK operatives detonated an explosive in a car outside the South African Air Force (SAAF) headquarters in Church Street, Pretoria, on 20 May 1983. Twenty one people were killed and two hundred and seventeen injured. The overall commander of MK\u2019s Special Operations Unit and two MK operatives were granted amnesty (AC/2001/003 and AC/2001/023). See Church Street Bombing, Pretoria. ",
        "coordinates": [
            28.1879444,
            -25.74594
        ],
        "date": "Date: 1983-05-20"
    },
    {
        "name": "Mgcineni Jackson BLOM",
        "place": "Bisho",
        "description": "An ANC supporter who was shot in the arm by members of the CDF in Bisho, Ciskei, on 7 September 1992 during an ANC protest march to demand free political activity in Ciskei. Thirty people were killed and two hundred people injured in the event which became known as the Bisho massacre. Two members of the former CDF were refused amnesty for the shooting (AC/2000/122).",
        "coordinates": [
            27.4558351,
            -32.839329
        ],
        "date": "Date: 1992-09-07"
    },
    {
        "name": "Sindiswa BLOM",
        "place": "Cradock",
        "description": "Blom, whose husband was a member of the SAP, was injured when her home was attacked during protests in Cradock, Cape, on 1 January 1984.",
        "coordinates": [
            25.619176,
            -32.164221
        ],
        "date": "Date: 1984-01-01"
    },
    {
        "name": "Bahlamukile Thembeni BLOSE",
        "place": "Sonkombo",
        "description": "Her house was burnt down by IFP supporters on 16 March 1994 at Sonkombo, Ndwedwe, KwaZulu, near Durban, in intense political conflict in the area. See Sonkombo arson attacks.",
        "coordinates": [
            31.009909,
            -29.86183
        ],
        "date": "Date: 1994-03-16"
    },
    {
        "name": "Bangizwe BLOSE",
        "place": "Sonkombo",
        "description": "Had his house burnt down by IFP supporters on 16 March 1994 at Sonkombo, Ndwedwe, KwaZulu, near Durban, in intense political conflict in the area. See Sonkombo arson attacks.",
        "coordinates": [
            31.009909,
            -29.86183
        ],
        "date": "Date: 1994-03-16"
    },
    {
        "name": "Bongi Jahephi BLOSE",
        "place": "Sonkombo",
        "description": "An ANC supporter who had her house burnt down by IFP supporters on 16 March 1994 at Sonkombo, Ndwedwe, KwaZulu, near Durban, in intense political conflict in the area. See Sonkombo arson attacks.",
        "coordinates": [
            31.009909,
            -29.86183
        ],
        "date": "Date: 1994-03-16"
    },
    {
        "name": "Bukisisani BLOSE",
        "place": "Sonkombo",
        "description": "An ANC supporter who had his house burnt down by Inkatha supporters at Sonkombo, Ndwedwe, KwaZulu, near Durban, during March 1989, in intensifying political conflict in the area.",
        "coordinates": [
            31.009909,
            -29.86183
        ],
        "date": "Date: 1989-03-01"
    },
    {
        "name": "Chrisostomus Thamsanqa BLOSE",
        "place": "Imbali",
        "description": "A member of the SAP, and a UDF supporter, who was killed by a fellow SAP member while at work in Imbali, Pietermaritzburg, on 21 April 1988.",
        "coordinates": [
            30.3472222,
            -29.65889
        ],
        "date": "Date: 1988-04-21"
    },
    {
        "name": "Florence Lethiwe BLOSE",
        "place": "Durban",
        "description": "Had her house set alight by ANC supporters at Ntuzuma, near Durban, on 11 February 1990, in political conflict following the release of Nelson Mandela from prison.",
        "coordinates": [
            31.009909,
            -29.86183
        ],
        "date": "Date: 1990-02-11"
    },
    {
        "name": "Funebona Anthony BLOSE",
        "place": "Sonkombo",
        "description": "Had his house destroyed in an arson attack during intense conflict between ANC and IFP supporters at Sonkombo, Ndwedwe, KwaZulu, near Durban, in 1994. See Sonkombo arson attacks.",
        "coordinates": [
            31.009909,
            -29.86183
        ],
        "date": "Date: Unknown"
    },
    {
        "name": "Harry Mafa BLOSE",
        "place": "Davel",
        "description": "An ANC supporter who was beaten by a named member of the SAP who was looking for Mr Blose\u2019s son at his home in Davel, Transvaal, in 1992.",
        "coordinates": [
            29.665373,
            -26.444775
        ],
        "date": "Date: Unknown"
    },
    {
        "name": "Hawukeleni BLOSE",
        "place": "Sonkombo",
        "description": "An ANC supporter who had her house burnt down by IFP supporters on 16 March 1994 at Sonkombo, Ndwedwe, KwaZulu, near Durban, in intense political conflict in the area. See Sonkombo arson attacks.",
        "coordinates": [
            31.009909,
            -29.86183
        ],
        "date": "Date: 1994-03-16"
    },
    {
        "name": "Hlekisile Thandazile BLOSE",
        "place": "Sonkombo",
        "description": "Had her house burnt down by IFP supporters on 16 March 1994 at Sonkombo, Ndwedwe, KwaZulu, near Durban, in intense political conflict in the area. See Sonkombo arson attacks.",
        "coordinates": [
            31.009909,
            -29.86183
        ],
        "date": "Date: 1994-03-16"
    },
    {
        "name": "Khetheyakhe John BLOSE",
        "place": "Sonkombo",
        "description": "An ANC supporter who had his house burnt down by IFP supporters on 16 March 1994 at Sonkombo, Ndwedwe, KwaZulu, near Durban, in intense political conflict in the area. See Sonkombo arson attacks.",
        "coordinates": [
            31.009909,
            -29.86183
        ],
        "date": "Date: 1994-03-16"
    },
    {
        "name": "Lindiwe Vimbephi BLOSE",
        "place": "Sonkombo",
        "description": "An ANC supporter who had her house burnt down by IFP supporters on 16 March 1994 at Sonkombo, Ndwedwe, KwaZulu, near Durban, in intense political conflict in the area. See Sonkombo arson attacks.",
        "coordinates": [
            31.009909,
            -29.86183
        ],
        "date": "Date: 1994-03-16"
    },
    {
        "name": "Lungile Joyce BLOSE",
        "place": "Sonkombo",
        "description": "An ANC supporter who had her home burnt down at Sonkombo, Ndwedwe, KwaZulu, near Durban, by IFP supporters on 16 March 1994. See Sonkombo arson attacks.",
        "coordinates": [
            31.009909,
            -29.86183
        ],
        "date": "Date: 1994-03-16"
    },
    {
        "name": "Mandlenkosi Michael BLOSE",
        "place": "Paddock",
        "description": "An ANC supporter who was shot dead by IFP supporters at Paddock, near Port Shepstone, Natal, on 26 October 1991.",
        "coordinates": [
            30.266667,
            -30.75
        ],
        "date": "Date: 1991-10-26"
    },
    {
        "name": "Mantombi BLOSE",
        "place": "Port Shepstone",
        "description": "An ANC supporter who had her home destroyed in an arson attack by Inkatha supporters at Dweshula, Port Shepstone, Natal, on 26 January 1988.",
        "coordinates": [
            30.4297304,
            -30.752126
        ],
        "date": "Date: 1988-01-26"
    },
    {
        "name": "Maureen Shiela BLOSE",
        "place": "Folweni",
        "description": "An ANC supporter who had her house burnt down by IFP supporters in Folweni, KwaZulu, near Umlazi, Durban, in 1992.",
        "coordinates": [
            31.009909,
            -29.86183
        ],
        "date": "Date: Unknown"
    },
    {
        "name": "Mayvis BLOSE",
        "place": "Port Shepstone",
        "description": "A UDF supporter who had her home destroyed in an arson attack by Inkatha supporters at Dweshula, Port Shepstone, Natal, on 26 January 1988.",
        "coordinates": [
            30.4297304,
            -30.752126
        ],
        "date": "Date: 1988-01-26"
    },
    {
        "name": "Mfanufikile Jeffrey BLOSE",
        "place": "Sonkombo",
        "description": "Had his home burnt down by IFP supporters on 16 March 1994 at Sonkombo, Ndwedwe, KwaZulu, near Durban, in intense political conflict in the area. See Sonkombo arson attacks.",
        "coordinates": [
            31.009909,
            -29.86183
        ],
        "date": "Date: 1994-03-16"
    },
    {
        "name": "Mpikayibuyi BLOSE",
        "place": "Sonkombo",
        "description": "Had his house burnt down by IFP supporters in March 1994 at Sonkombo, Ndwedwe, KwaZulu, near Durban, in intense political conflict in the area. See Sonkombo arson attacks.",
        "coordinates": [
            31.009909,
            -29.86183
        ],
        "date": "Date: 1994-03-01"
    },
    {
        "name": "Ndauko BLOSE",
        "place": "Sonkombo",
        "description": "Had her home burnt down by IFP supporters at Sonkombo, Ndwedwe, KwaZulu, near Durban, on 16 March 1994. See Sonkombo arson attacks.",
        "coordinates": [
            31.009909,
            -29.86183
        ],
        "date": "Date: 1994-03-16"
    },
    {
        "name": "Nokujeza Cathrine BLOSE",
        "place": "Ndwedwe",
        "description": "Had her house damaged in an arson attack by IFP supporters at Ndwedwe, KwaZulu, near Durban, on 15 November 1992, during a period of political conflict in the area.",
        "coordinates": [
            31.009909,
            -29.86183
        ],
        "date": "Date: 1992-11-15"
    },
    {
        "name": "Nonhlanhla Bellinah BLOSE",
        "place": "Davel",
        "description": "An ANC supporter who was beaten in her home in Davel, Transvaal, by a member of the SAP searching for her brother.",
        "coordinates": [
            29.665373,
            -26.444775
        ],
        "date": "Date: Unknown"
    },
    {
        "name": "Nonkululeko Sindisiwe BLOSE",
        "place": "Sonkombo",
        "description": "Had her house burnt down by IFP supporters on 16 March 1994 at Sonkombo, Ndwedwe, KwaZulu, near Durban, in intense political conflict in the area. See Sonkombo arson attacks.",
        "coordinates": [
            31.009909,
            -29.86183
        ],
        "date": "Date: 1994-03-16"
    },
    {
        "name": "Ntombenhle Lindiwe BLOSE",
        "place": "Sonkombo",
        "description": "An ANC supporter who had her home burnt down by IFP supporters at Sonkombo, Ndwedwe, KwaZulu, near Durban, on 16 March 1994. See Sonkombo arson attacks.",
        "coordinates": [
            31.009909,
            -29.86183
        ],
        "date": "Date: 1994-03-16"
    },
    {
        "name": "Ntombeyiningi Rene BLOSE",
        "place": "Sonkombo",
        "description": "An ANC supporter who had her house burnt down by IFP supporters on 16 March 1994 at Sonkombo, Ndwedwe, KwaZulu, near Durban, in intense political conflict in the area. See Sonkombo arson attacks.",
        "coordinates": [
            31.009909,
            -29.86183
        ],
        "date": "Date: 1994-03-16"
    },
    {
        "name": "Nobandla Nontitetwa Elda BANI",
        "place": "North End",
        "description": "She died in North End Prison, Port Elizabeth, on 29 July 1987, allegedly as a result of being denied access to diabetic medication by a named prison warder. She had been detained and tortured for her activities as a street committee member in her area. Despite her deteriorating health, she was kept in solitary confinement during her last days.",
        "coordinates": [
            25.6053223,
            -33.94221
        ],
        "date": "Date: 1987-07-29"
    },
    {
        "name": "Lesiba Johannes BANOKO",
        "place": "Matlala",
        "description": "His house was burnt down by supporters of Chief BK Matlala in GaMatlala, Lebowa, on 2 February 1980, because he resisted the proposed independence of Lebowa.",
        "coordinates": [
            29.0836111,
            -23.74
        ],
        "date": "Date: 1980-02-02"
    },
    {
        "name": "Hendry Pico BANTOBETSE",
        "place": "Taung",
        "description": "Was severely beaten with batons by members of the Bophutha-tswana Police, in Taung, Bophuthatswana, while attending a mass meeting in September 1988.",
        "coordinates": [
            24.7452778,
            -27.56806
        ],
        "date": "Date: 1988-09-01"
    },
    {
        "name": "Butana Stephen BANTOM",
        "place": "Uitenhage",
        "description": "Was beaten to death by members of the SAP and the security forces in KwaNobuhle, Uitenhage, Cape, on 17 December 1984, while attending a vigil for the family member of a UDF leader who had died in an arson attack.",
        "coordinates": [
            25.3961302,
            -33.76743
        ],
        "date": "Date: 1984-12-17"
    },
    {
        "name": "Constance Bontle BAPELA",
        "place": "Alexandra",
        "description": "A COSAS and Alexandra Youth Congress member who was tortured while in detention in Johannesburg Prison, in 1986. Ms Bapela was detained at Sun City Prison under emergency regulations during 1985 and was only released in 1988. Ms Bapela and other activists launched a protest demanding to be charged or released.",
        "coordinates": [
            28.098836,
            -26.105284
        ],
        "date": "Date: Unknown"
    },
    {
        "name": "Kopeng Obed BAPELA",
        "place": "Alexandra",
        "description": "An ANC member from Alexandra, Johannesburg, who was detained in Johannesburg by members of the SAP on 1 January 1982. Along with several others, he was charged with sedition. After a long trial, he was acquitted. On 31 December 1988 the house where he was staying was petrol-bombed.",
        "coordinates": [
            28.098836,
            -26.105284
        ],
        "date": "Date: 1982-01-01"
    },
    {
        "name": "Kopeng Obed BAPELA",
        "place": "Alexandra",
        "description": "An ANC member from Alexandra, Johannesburg, who was detained in Johannesburg by members of the SAP on 1 January 1982. Along with several others, he was charged with sedition. After a long trial, he was acquitted. On 31 December 1988 the house where he was staying was petrol-bombed.",
        "coordinates": [
            28.098836,
            -26.105284
        ],
        "date": "Date: 1988-12-31"
    },
    {
        "name": "Matule BAPELA",
        "place": "Nebo",
        "description": "Was doused with petrol and set alight by residents of Marishane village, in Nebo, Lebowa, on 20 August 1992. One ANC member, who claimed Ms Bapela was suspected of witchcraft, was refused amnesty for the incident (AC/2000/112).",
        "coordinates": [
            26.946544,
            -31.054528
        ],
        "date": "Date: 1992-08-20"
    },
    {
        "name": "Pieter Johan BARBAS",
        "place": "Krugersdorp",
        "description": "A passing motorist who was shot, killed and robbed of his vehicle by MK operatives in Krugersdorp, Transvaal, on 27 September 1991. The MK operatives were escaping arrest after being stopped at a roadblock by traffic officers. Several traffic officers were injured. Three MK operatives were granted amnesty for the incident (AC/1998/0091).",
        "coordinates": [
            27.775556,
            -26.09556
        ],
        "date": "Date: 1991-09-27"
    },
    {
        "name": "Adrianna BARBOSA",
        "place": "Johannesburg",
        "description": "Was injured when MK operatives detonated a limpet mine in a dustbin at the Vanderbijl Square bus terminus, Johannesburg, on 21 September 1988. Nineteen people were injured and a number of vehicles and buildings were damaged. Two MK Special Operations operatives were granted amnesty (AC/2000/056). A late application by a third operative was dismissed.",
        "coordinates": [
            28.049815,
            -26.205171
        ],
        "date": "Date: 1988-09-21"
    },
    {
        "name": "Brian Peter BARENDS",
        "place": "Cape Town",
        "description": "A member of the BMW who was detained for seventeen days in October 1987 in Pollsmoor prison, Cape Town. During his detention he was interrogated, severely beaten and sexually assaulted by members of a special police Unrest Investigation Unit.",
        "coordinates": [
            18.417396,
            -33.92899
        ],
        "date": "Date: 1987-10-01"
    },
    {
        "name": "Charoldine BARKER",
        "place": "Paarl",
        "description": "Was seriously injured in Paarl, Cape, on 28 July 1980 when police fired teargas and rubber bullets at the protesters. In the chaos that followed, Charoldine, who was watching the protest, was knocked off a wall and trampled on, resulting in a broken hip.",
        "coordinates": [
            18.975228,
            -33.733781
        ],
        "date": "Date: 1980-07-28"
    },
    {
        "name": "Douglas Hilton BARKER",
        "place": "Benoni",
        "description": "Was present when a limpet mine, planted by MK operatives, exploded during lunchtime at the Wimpy restaurant in Benoni, Tvl, on 30 July 1988. One woman was killed and at least 66 people were injured. Four MK operatives were granted amnesty for the planning and execution of the attack (AC/1999/0294).",
        "coordinates": [
            28.311338,
            -26.190851
        ],
        "date": "Date: 1988-07-30"
    },